	Š¦¥L–•6ÿ’PM–ÁŠb’IiSá Q-‚Š4	#¥f†
$PGACK,33,1*6F
$PGTOP,11,2*6E
$GPGGA,184006.290,,,,,0,04,,,M,,M,,*7C
$GPGLL,,,,,184006.290,V,N*7A
$GPGSA,A,1,,,,,,,,,,,,,,,*1E
$GPGSV,3,1,11,26,67,098,32,16,57,167,,23,51,304,23,03,48,237,21*72
$GPGSV,3,2,11,22,37,210,19,31,35,065,29,14,21,118,,09,14,304,*7E
$GPGSV,3,3,11,29,13,047,38,06,03,316,,34,,,*7E
$GPRMC,184006.290,V,,,,,0.19,250.14,110317,,,N*42
$GPVTG,250.14,T,,M,0.19,N,0.35,K,N*3E
$PGTOP,11,2*6E
$GPGGA,184007.290,,,,,0,04,,,M,,M,,*7D
$GPGLL,,,,,184007.290,V,N*7B
$GPGSA,A,1,,,,,,,,,,,,,,,*1E
$GPGSV,3,1,11,26,67,098,31,16,57,167,,23,51,304,23,03,48,237,21*71
$GPGSV,3,2,11,22,37,210,19,31,35,065,29,14,21,118,,09,14,304,*7E
$GPGSV,3,3,11,29,13,047,38,06,03,316,,34,,,*7E
$GPRMC,184007.290,V,,,,,0.14,29.44,110317,,,N*77
$GPVTG,29.44,T,,M,0.14,N,0.27,K,N*09
$PGTOP,11,2*6E
$GPGGA,184008.290,,,,,0,04,,,M,,M,,*72
$GPGLL,,,,,184008.290,V,N*74
$GPGSA,A,1,,,,,,,,,,,,,,,*1E
$GPGSV,3,1,11,26,67,098,31,16,57,167,,23,51,304,22,03,48,237,20*71
$GPGSV,3,2,11,22,37,210,19,31,35,065,28,14,21,118,,09,14,304,*7F
$GPGSV,3,3,11,29,13,047,38,06,03,316,,35,,,*7F
$GPRMC,184008.290,V,,,,,0.27,42.16,110317,,,N*72
$GPVTG,42.16,T,,M,0.27,N,0.49,K,N*0B
$PGTOP,11,2*6E
$GPGGA,184009.290,,,,,0,04,,,M,,M,,*73
$GPGLL,,,,,184009.290,V,N*75
$GPGSA,A,1,,,,,,,,,,,,,,,*1E
$GPGSV,3,1,11,26,67,098,31,16,57,167,,23,51,304,22,03,48,237,20*71
$GPGSV,3,2,11,22,37,210,19,31,35,065,28,14,21,118,,09,14,304,*7F
$GPGSV,3,3,11,29,13,047,38,06,03,316,,35,,,*7F
$GPRMC,184009.290,V,,,,,0.14,142.72,110317,,,N*40
$GPVTG,142.72,T,,M,0.14,N,0.27,K,N*30
$PGTOP,11,2*6E
$GPGGA,184010.290,,,,,0,04,,,M,,M,,*7B
$GPGLL,,,,,184010.290,V,N*7D
$GPGSA,A,1,,,,,,,,,,,,,,,*1E
$GPGSV,3,1,11,26,67,098,31,16,57,167,,23,51,304,22,03,48,237,20*71
$GPGSV,3,2,11,22,37,210,19,31,35,065,28,14,21,118,,09,14,304,*7F
$GPGSV,3,3,11,29,13,047,38,06,03,316,,35,,,*7F
$GPRMC,184010.290,V,,,,,0.38,211.90,110317,,,N*4F
$GPVTG,211.90,T,,M,0.38,N,0.70,K,N*35
$PGTOP,11,2*6E
$GPGGA,184011.290,,,,,0,04,,,M,,M,,*7A
$GPGLL,,,,,184011.290,V,N*7C
$GPGSA,A,1,,,,,,,,,,,,,,,*1E
$GPGSV,3,1,11,26,67,098,30,16,57,167,,23,51,304,22,03,48,237,19*7A
$GPGSV,3,2,11,22,37,210,19,31,35,065,27,14,21,118,,09,14,304,*70
$GPGSV,3,3,11,29,13,047,37,06,03,316,,35,,,*70
$GPRMC,184011.290,V,,,,,0.24,228.21,110317,,,N*43
$GPVTG,228.21,T,,M,0.24,N,0.44,K,N*3F
$PGTOP,11,2*6E
$GPGGA,184012.290,,,,,0,04,,,M,,M,,*79
$GPGLL,,,,,184012.290,V,N*7F
$GPGSA,A,1,,,,,,,,,,,,,,,*1E
$GPGSV,3,1,11,26,67,098,29,16,57,167,,23,51,304,22,03,48,237,19*72
$GPGSV,3,2,11,22,37,210,20,31,35,065,28,14,21,118,,09,14,304,*75
$GPGSV,3,3,11,29,13,047,37,06,03,316,,35,,,*70
$GPRMC,184012.290,V,,,,,0.24,209.08,110317,,,N*48
$GPVTG,209.08,T,,M,0.24,N,0.44,K,N*37
$PGTOP,11,2*6E
$GPGGA,184013.290,,,,,0,04,,,M,,M,,*78
$GPGLL,,,,,184013.290,V,N*7E
$GPGSA,A,1,,,,,,,,,,,,,,,*1E
$GPGSV,3,1,11,26,67,098,29,16,57,167,,23,51,304,23,03,48,237,19*73
$GPGSV,3,2,11,22,37,210,20,31,35,065,28,14,21,118,,09,14,304,*75
$GPGSV,3,3,11,29,13,047,37,06,03,316,,35,,,*70
$GPRMC,184013.290,V,,,,,0.32,222.17,110317,,,N*49
$GPVTG,222.17,T,,M,0.32,N,0.59,K,N*3B
$PGTOP,11,2*6E
$GPGGA,184015.000,,,,,0,04,,,M,,M,,*75
$GPGLL,,,,,184015.000,V,N*73
$GPGSA,A,1,,,,,,,,,,,,,,,*1E
$GPGSV,3,1,11,26,67,098,29,16,57,167,,23,51,304,23,03,48,237,19*73
$GPGSV,3,2,11,22,37,210,21,31,35,065,29,14,21,118,,09,14,304,*75
$GPGSV,3,3,11,29,13,047,37,06,03,316,,36,,,*73
$GPRMC,184015.000,V,,,,,0.28,210.19,110317,,,N*40
$GPVTG,210.19,T,,M,0.28,N,0.51,K,N*37
$PGTOP,11,2*6E
$GPGGA,184016.000,,,,,0,04,,,M,,M,,*76
$GPGLL,,,,,184016.000,V,N*70
$GPGSA,A,1,,,,,,,,,,,,,,,*1E
$GPGSV,3,1,11,26,67,098,29,16,57,167,,23,51,304,24,03,48,237,19*74
$GPGSV,3,2,11,22,37,210,22,31,35,065,30,14,21,118,,09,14,304,*7E
$GPGSV,3,3,11,29,13,047,37,06,03,316,,36,,,*73
$GPRMC,184016.000,V,,,,,0.32,225.87,110317,,,N*49
$GPVTG,225.87,T,,M,0.32,N,0.59,K,N*35
$PGTOP,11,2*6E
$GPGGA,184017.000,,,,,0,04,,,M,,M,,*77
$GPGLL,,,,,184017.000,V,N*71
$GPGSA,A,1,,,,,,,,,,,,,,,*1E
$GPGSV,3,1,11,26,67,098,29,16,57,167,,23,51,304,24,03,48,237,19*74
$GPGSV,3,2,11,22,37,210,22,31,35,065,30,14,21,118,,09,14,304,*7E
$GPGSV,3,3,11,29,13,047,38,06,03,316,,36,,,*7C
$GPRMC,184017.000,V,,,,,0.31,249.64,110317,,,N*4C
$GPVTG,249.64,T,,M,0.31,N,0.58,K,N*30
$PGTOP,11,2*6E
$GPGGA,184018.000,,,,,0,04,,,M,,M,,*78
$GPGLL,,,,,184018.000,V,N*7E
$GPGSA,A,1,,,,,,,,,,,,,,,*1E
$GPGSV,3,1,11,26,67,098,29,16,57,167,,23,51,304,24,03,48,237,19*74
$GPGSV,3,2,11,22,37,210,22,31,35,065,30,14,21,118,,09,14,304,*7E
$GPGSV,3,3,11,29,13,047,38,06,03,316,,36,,,*7C
$GPRMC,184018.000,V,,,,,0.30,237.28,110317,,,N*43
$GPVTG,237.28,T,,M,0.30,N,0.56,K,N*3E
$PGTOP,11,2*6E
$GPGGA,184019.000,,,,,0,04,,,M,,M,,*79
$GPGLL,,,,,184019.000,V,N*7F
$GPGSA,A,1,,,,,,,,,,,,,,,*1E
$GPGSV,3,1,11,26,67,098,29,16,57,167,,23,51,304,24,03,48,237,19*74
$GPGSV,3,2,11,22,37,210,22,31,35,065,30,14,21,118,17,09,14,304,*78
$GPGSV,3,3,11,29,13,047,38,06,03,316,,36,,,*7C
$GPRMC,184019.000,V,,,,,0.27,265.60,110317,,,N*4F
$GPVTG,265.60,T,,M,0.27,N,0.51,K,N*34
$PGTOP,11,2*6E
$GPGGA,184020.000,,,,,0,04,,,M,,M,,*73
$GPGLL,,,,,184020.000,V,N*75
$GPGSA,A,1,,,,,,,,,,,,,,,*1E
$GPGSV,3,1,11,26,67,098,30,16,57,167,,23,51,304,24,03,48,237,20*76
$GPGSV,3,2,11,22,37,210,21,31,34,065,30,14,21,118,18,09,14,304,*75
$GPGSV,3,3,11,29,13,047,38,06,03,316,,36,,,*7C
$GPRMC,184020.000,V,,,,,0.28,287.62,110317,,,N*44
$GPVTG,287.62,T,,M,0.28,N,0.52,K,N*36
$PGTOP,11,2*6E
$GPGGA,184021.000,,,,,0,04,,,M,,M,,*72
$GPGLL,,,,,184021.000,V,N*74
$GPGSA,A,1,,,,,,,,,,,,,,,*1E
$GPGSV,3,1,11,26,67,098,30,16,57,167,,23,51,304,24,03,48,237,20*76
$GPGSV,3,2,11,22,37,210,21,31,34,065,30,14,21,118,19,09,14,304,*74
$GPGSV,3,3,11,29,13,047,38,06,03,316,,36,,,*7C
$GPRMC,184021.000,V,,,,,0.11,294.21,110317,,,N*4A
$GPVTG,294.21,T,,M,0.11,N,0.21,K,N*3D
$PGTOP,11,2*6E
$GPGGA,184022.000,,,,,0,04,,,M,,M,,*71
$GPGLL,,,,,184022.000,V,N*77
$GPGSA,A,1,,,,,,,,,,,,,,,*1E
$GPGSV,3,1,11,26,67,098,31,16,57,167,,23,51,304,24,03,48,237,20*77
$GPGSV,3,2,11,22,37,210,20,31,34,065,29,14,21,118,18,09,14,304,*7C
$GPGSV,3,3,11,29,13,047,38,06,03,316,,38,,,*72
$GPRMC,184022.000,V,,,,,0.13,288.43,110317,,,N*42
$GPVTG,288.43,T,,M,0.13,N,0.24,K,N*33
$PGTOP,11,2*6E
$GPGGA,184023.000,,,,,0,04,,,M,,M,,*70
$GPGLL,,,,,184023.000,V,N*76
$GPGSA,A,1,,,,,,,,,,,,,,,*1E
$GPGSV,3,1,11,26,67,098,31,16,57,167,,23,51,304,24,03,48,237,21*76
$GPGSV,3,2,11,22,37,210,20,31,34,065,29,14,21,118,18,09,14,304,*7C
$GPGSV,3,3,11,29,13,047,38,06,03,316,,38,,,*72
$GPRMC,184023.000,V,,,,,0.17,245.97,110317,,,N*4F
$GPVTG,245.97,T,,M,0.17,N,0.31,K,N*3B
$PGTOP,11,2*6E
$GPGGA,184024.000,,,,,0,04,,,M,,M,,*77
$GPGLL,,,,,184024.000,V,N*71
$GPGSA,A,1,,,,,,,,,,,,,,,*1E
$GPGSV,3,1,11,26,67,098,31,16,57,167,,23,51,304,24,03,48,237,21*76
$GPGSV,3,2,11,22,37,210,19,31,34,065,29,14,21,118,18,09,14,304,*76
$GPGSV,3,3,11,29,13,047,38,06,03,316,,38,,,*72
$GPRMC,184024.000,V,,,,,0.20,297.61,110317,,,N*4A
$GPVTG,297.61,T,,M,0.20,N,0.37,K,N*3F
$PGTOP,11,2*6E
$GPGGA,184025.000,,,,,0,05,,,M,,M,,*77
$GPGLL,,,,,184025.000,V,N*70
$GPGSA,A,1,,,,,,,,,,,,,,,*1E
$GPGSV,3,1,11,26,67,098,31,16,57,167,,23,51,304,24,03,48,237,21*76
$GPGSV,3,2,11,22,37,210,19,31,34,065,29,14,21,118,18,09,14,304,*76
$GPGSV,3,3,11,29,13,047,38,06,03,316,,38,,,*72
$GPRMC,184025.000,V,,,,,0.12,349.53,110317,,,N*49
$GPVTG,349.53,T,,M,0.12,N,0.22,K,N*39
$PGTOP,11,2*6E
$GPGGA,184026.000,,,,,0,05,,,M,,M,,*74
$GPGLL,,,,,184026.000,V,N*73
$GPGSA,A,1,,,,,,,,,,,,,,,*1E
$GPGSV,3,1,11,26,67,098,31,16,57,167,,23,51,304,24,03,48,237,21*76
$GPGSV,3,2,11,22,37,210,19,31,34,065,29,14,21,118,18,09,14,304,*76
$GPGSV,3,3,11,29,13,047,38,06,03,316,,38,,,*72
$GPRMC,184026.000,V,,,,,0.13,314.75,110317,,,N*47
$GPVTG,314.75,T,,M,0.13,N,0.23,K,N*35
$PGTOP,11,2*6E
$GPGGA,184027.000,,,,,0,05,,,M,,M,,*75
$GPGLL,,,,,184027.000,V,N*72
$GPGSA,A,1,,,,,,,,,,,,,,,*1E
$GPGSV,3,1,11,26,67,098,31,16,57,167,,23,51,304,24,03,48,237,21*76
$GPGSV,3,2,11,22,37,210,19,31,34,065,29,14,21,118,18,09,14,304,*76
$GPGSV,3,3,11,29,13,047,38,06,03,316,,38,,,*72
$GPRMC,184027.000,V,,,,,0.12,285.10,110317,,,N*4D
$GPVTG,285.10,T,,M,0.12,N,0.22,K,N*3F
$PGTOP,11,2*6E
$GPGGA,184028.000,,,,,0,05,,,M,,M,,*7A
$GPGLL,,,,,184028.000,V,N*7D
$GPGSA,A,1,,,,,,,,,,,,,,,*1E
$GPGSV,3,1,11,26,67,098,31,16,57,167,,23,51,304,25,03,48,237,21*77
$GPGSV,3,2,11,22,37,210,19,31,34,065,29,14,21,118,18,09,14,304,*76
$GPGSV,3,3,11,29,13,047,38,06,03,316,15,41,,,*78
$GPRMC,184028.000,V,,,,,0.05,218.93,110317,,,N*4B
$GPVTG,218.93,T,,M,0.05,N,0.09,K,N*3F
$PGTOP,11,2*6E
$GPGGA,184029.000,,,,,0,05,,,M,,M,,*7B
$GPGLL,,,,,184029.000,V,N*7C
$GPGSA,A,1,,,,,,,,,,,,,,,*1E
$GPGSV,3,1,11,26,67,098,31,16,57,167,,23,51,304,25,03,48,237,21*77
$GPGSV,3,2,11,22,37,210,19,31,34,065,29,14,21,118,18,09,14,304,*76
$GPGSV,3,3,11,29,13,047,38,06,03,316,16,41,,,*7B
$GPRMC,184029.000,V,,,,,0.06,281.31,110317,,,N*41
$GPVTG,281.31,T,,M,0.06,N,0.11,K,N*3D
$PGTOP,11,2*6E
$GPGGA,184030.000,,,,,0,05,,,M,,M,,*73
$GPGLL,,,,,184030.000,V,N*74
$GPGSA,A,1,,,,,,,,,,,,,,,*1E
$GPGSV,3,1,11,26,67,098,31,16,57,167,,23,51,304,25,03,48,237,21*77
$GPGSV,3,2,11,22,37,210,20,31,34,065,29,14,21,118,18,09,14,304,*7C
$GPGSV,3,3,11,29,13,047,38,06,03,316,15,41,,,*78
$GPRMC,184030.000,V,,,,,0.16,345.69,110317,,,N*4C
$GPVTG,345.69,T,,M,0.16,N,0.29,K,N*33
$PGTOP,11,2*6E
$GPGGA,184031.000,,,,,0,05,,,M,,M,,*72
$GPGLL,,,,,184031.000,V,N*75
$GPGSA,A,1,,,,,,,,,,,,,,,*1E
$GPGSV,3,1,11,26,67,098,31,16,57,167,,23,51,304,25,03,48,237,21*77
$GPGSV,3,2,11,22,37,210,21,31,34,065,29,14,21,118,18,09,14,304,*7D
$GPGSV,3,3,11,29,13,047,38,06,03,316,15,41,,,*78
$GPRMC,184031.000,V,,,,,0.11,282.77,110317,,,N*4F
$GPVTG,282.77,T,,M,0.11,N,0.20,K,N*38
$PGTOP,11,2*6E
$GPGGA,184032.000,,,,,0,05,,,M,,M,,*71
$GPGLL,,,,,184032.000,V,N*76
$GPGSA,A,1,,,,,,,,,,,,,,,*1E
$GPGSV,3,1,11,26,67,098,30,16,57,167,,23,51,304,25,03,48,237,21*76
$GPGSV,3,2,11,22,37,210,21,31,34,065,29,14,21,118,18,09,14,304,*7D
$GPGSV,3,3,11,29,13,047,38,06,03,316,15,41,,,*78
$GPRMC,184032.000,V,,,,,0.23,2.14,110317,,,N*42
$GPVTG,2.14,T,,M,0.23,N,0.43,K,N*33
$PGTOP,11,2*6E
$GPGGA,184033.000,,,,,0,05,,,M,,M,,*70
$GPGLL,,,,,184033.000,V,N*77
$GPGSA,A,1,,,,,,,,,,,,,,,*1E
$GPGSV,3,1,11,26,67,098,30,16,57,167,,23,51,304,26,03,48,237,21*75
$GPGSV,3,2,11,22,37,210,21,31,34,065,29,14,21,118,18,09,14,304,*7D
$GPGSV,3,3,11,29,13,047,38,06,03,316,15,41,,,*78
$GPRMC,184033.000,V,,,,,0.34,320.79,110317,,,N*4D
$GPVTG,320.79,T,,M,0.34,N,0.63,K,N*3F
$PGTOP,11,2*6E
$GPGGA,184034.000,,,,,0,05,,,M,,M,,*77
$GPGLL,,,,,184034.000,V,N*70
$GPGSA,A,1,,,,,,,,,,,,,,,*1E
$GPGSV,3,1,11,26,67,098,30,16,57,167,22,23,51,304,26,03,48,237,20*74
$GPGSV,3,2,11,22,37,210,21,31,34,065,30,14,21,118,18,09,14,304,*75
$GPGSV,3,3,11,29,13,047,38,06,03,316,15,43,,,*7A
$GPRMC,184034.000,V,,,,,0.32,306.97,110317,,,N*48
$GPVTG,306.97,T,,M,0.32,N,0.60,K,N*3E
$PGTOP,11,2*6E
$GPGGA,184035.000,,,,,0,05,,,M,,M,,*76
$GPGLL,,,,,184035.000,V,N*71
$GPGSA,A,1,,,,,,,,,,,,,,,*1E
$GPGSV,3,1,11,26,67,098,29,16,57,167,22,23,51,304,26,03,48,237,20*7C
$GPGSV,3,2,11,22,37,210,21,31,34,065,30,14,21,118,18,09,14,304,*75
$GPGSV,3,3,11,29,13,047,38,06,03,316,15,43,,,*7A
$GPRMC,184035.000,V,,,,,0.35,320.49,110317,,,N*49
$GPVTG,320.49,T,,M,0.35,N,0.65,K,N*3B
$PGTOP,11,2*6E
$GPGGA,184036.000,,,,,0,05,,,M,,M,,*75
$GPGLL,,,,,184036.000,V,N*72
$GPGSA,A,1,,,,,,,,,,,,,,,*1E
$GPGSV,3,1,11,26,67,098,29,16,57,167,24,23,51,304,26,03,48,237,20*7A
$GPGSV,3,2,11,22,37,210,21,31,34,065,30,14,21,118,18,09,14,304,*75
$GPGSV,3,3,11,29,13,047,38,06,03,316,15,43,,,*7A
$GPRMC,184036.000,V,,,,,0.47,5.17,110317,,,N*40
$GPVTG,5.17,T,,M,0.47,N,0.87,K,N*3D
$PGTOP,11,2*6E
$GPGGA,184037.000,4459.0085,N,09314.6412,W,1,05,2.13,227.7,M,-31.9,M,,*5B
$GPGLL,4459.0085,N,09314.6412,W,184037.000,A,A*4D
$GPGSA,A,3,03,26,29,31,23,,,,,,,,3.51,2.13,2.79*06
$GPGSV,3,1,11,26,67,098,29,16,57,167,23,23,51,304,26,03,48,237,20*7D
$GPGSV,3,2,11,22,37,210,22,31,34,065,30,14,21,118,18,09,14,304,*76
$GPGSV,3,3,11,29,13,047,38,06,03,316,14,43,,,*7B
$GPRMC,184037.000,A,4459.0085,N,09314.6412,W,0.31,347.19,110317,,,A*75
$GPVTG,347.19,T,,M,0.31,N,0.57,K,A*35
$PGTOP,11,2*6E
$GPGGA,184038.000,4459.0118,N,09314.6433,W,1,05,2.13,233.4,M,-31.9,M,,*54
$GPGLL,4459.0118,N,09314.6433,W,184038.000,A,A*44
$GPGSA,A,3,03,26,29,31,23,,,,,,,,3.51,2.13,2.79*06
$GPGSV,3,1,11,26,67,098,29,16,57,167,23,23,51,304,26,03,48,237,20*7D
$GPGSV,3,2,11,22,37,210,22,31,34,065,30,14,21,118,18,09,14,304,*76
$GPGSV,3,3,11,29,13,047,38,06,03,316,14,43,,,*7B
$GPRMC,184038.000,A,4459.0118,N,09314.6433,W,0.18,2.29,110317,,,A*76
$GPVTG,2.29,T,,M,0.18,N,0.34,K,A*3A
$PGTOP,11,2*6E
$GPGGA,184039.000,4459.0135,N,09314.6444,W,1,05,2.13,236.8,M,-31.9,M,,*53
$GPGLL,4459.0135,N,09314.6444,W,184039.000,A,A*4A
$GPGSA,A,3,03,26,29,31,23,,,,,,,,3.51,2.13,2.79*06
$GPGSV,3,1,11,26,67,098,29,16,57,167,23,23,51,304,26,03,48,237,20*7D
$GPGSV,3,2,11,22,37,210,22,31,34,065,30,14,21,118,18,09,14,304,*76
$GPGSV,3,3,11,29,13,047,38,06,03,316,14,43,,,*7B
$GPRMC,184039.000,A,4459.0135,N,09314.6444,W,0.13,334.14,110317,,,A*7B
$GPVTG,334.14,T,,M,0.13,N,0.24,K,A*38
$PGTOP,11,2*6E
$GPGGA,184040.000,4459.0153,N,09314.6456,W,1,05,1.83,239.8,M,-31.9,M,,*5B
$GPGLL,4459.0153,N,09314.6456,W,184040.000,A,A*47
$GPGSA,A,3,03,26,29,31,23,,,,,,,,2.06,1.83,0.94*0E
$GPGSV,3,1,11,26,67,098,29,16,57,167,23,23,51,304,27,03,48,237,19*76
$GPGSV,3,2,11,22,37,210,23,31,34,065,30,14,21,118,18,09,14,304,*77
$GPGSV,3,3,11,29,13,047,38,06,03,316,13,45,,,*7A
$GPRMC,184040.000,A,4459.0153,N,09314.6456,W,0.19,310.90,110317,,,A*76
$GPVTG,310.90,T,,M,0.19,N,0.36,K,A*3B
$PGTOP,11,2*6E
$GPGGA,184041.000,4459.0158,N,09314.6459,W,1,05,1.83,241.3,M,-31.9,M,,*5A
$GPGLL,4459.0158,N,09314.6459,W,184041.000,A,A*42
$GPGSA,A,3,03,26,29,31,23,,,,,,,,2.06,1.83,0.94*0E
$GPGSV,3,1,11,26,67,098,28,16,57,167,23,23,51,304,27,03,48,237,18*76
$GPGSV,3,2,11,22,37,210,23,31,34,065,30,14,21,118,18,09,14,304,*77
$GPGSV,3,3,11,29,13,047,38,06,03,316,13,45,,,*7A
$GPRMC,184041.000,A,4459.0158,N,09314.6459,W,0.04,296.74,110317,,,A*7A
$GPVTG,296.74,T,,M,0.04,N,0.07,K,A*30
$PGTOP,11,2*6E
$GPGGA,184042.000,4459.0161,N,09314.6459,W,1,05,1.83,242.1,M,-31.9,M,,*52
$GPGLL,4459.0161,N,09314.6459,W,184042.000,A,A*4B
$GPGSA,A,3,03,26,29,31,23,,,,,,,,2.06,1.83,0.94*0E
$GPGSV,3,1,11,26,67,098,28,16,57,167,23,23,51,304,26,03,48,237,18*77
$GPGSV,3,2,11,22,37,210,23,31,34,065,30,14,21,118,18,09,14,304,*77
$GPGSV,3,3,11,29,13,047,38,06,03,316,13,45,,,*7A
$GPRMC,184042.000,A,4459.0161,N,09314.6459,W,0.04,20.31,110317,,,A*4D
$GPVTG,20.31,T,,M,0.04,N,0.08,K,A*01
$PGTOP,11,2*6E
$GPGGA,184043.000,4459.0166,N,09314.6461,W,1,05,1.83,243.8,M,-31.9,M,,*57
$GPGLL,4459.0166,N,09314.6461,W,184043.000,A,A*46
$GPGSA,A,3,03,26,29,31,23,,,,,,,,2.06,1.83,0.94*0E
$GPGSV,3,1,11,26,67,098,28,16,57,167,21,23,51,304,27,03,48,237,18*74
$GPGSV,3,2,11,22,37,210,25,31,34,065,31,14,21,118,18,09,14,304,*70
$GPGSV,3,3,11,29,13,047,39,06,03,316,14,45,,,*7C
$GPRMC,184043.000,A,4459.0166,N,09314.6461,W,0.08,148.20,110317,,,A*73
$GPVTG,148.20,T,,M,0.08,N,0.14,K,A*3F
$PGTOP,11,2*6E
$GPGGA,184044.000,4459.0170,N,09314.6464,W,1,05,1.83,244.6,M,-31.9,M,,*5B
$GPGLL,4459.0170,N,09314.6464,W,184044.000,A,A*43
$GPGSA,A,3,03,26,29,31,23,,,,,,,,2.06,1.83,0.94*0E
$GPGSV,3,1,11,26,67,098,28,16,57,167,19,23,51,304,28,03,48,237,18*70
$GPGSV,3,2,11,22,37,210,26,31,34,065,33,14,21,118,17,09,14,304,*7E
$GPGSV,3,3,11,29,13,047,40,06,03,316,14,45,,,*72
$GPRMC,184044.000,A,4459.0170,N,09314.6464,W,0.03,351.45,110317,,,A*74
$GPVTG,351.45,T,,M,0.03,N,0.06,K,A*3E
$PGTOP,11,2*6E
$GPGGA,184045.000,4459.0172,N,09314.6464,W,1,05,2.13,245.1,M,-31.9,M,,*54
$GPGLL,4459.0172,N,09314.6464,W,184045.000,A,A*40
$GPGSA,A,3,03,26,29,31,23,,,,,,,,3.50,2.13,2.79*07
$GPGSV,3,1,11,26,67,098,28,16,57,167,18,23,51,304,29,03,48,237,18*70
$GPGSV,3,2,11,22,37,210,27,31,34,065,33,14,21,118,17,09,14,304,*7F
$GPGSV,3,3,11,29,13,047,41,06,03,316,15,45,,,*72
$GPRMC,184045.000,A,4459.0172,N,09314.6464,W,0.16,61.73,110317,,,A*46
$GPVTG,61.73,T,,M,0.16,N,0.30,K,A*0A
$PGTOP,11,2*6E
$GPGGA,184046.000,4459.0172,N,09314.6463,W,1,05,1.83,245.7,M,-31.9,M,,*5C
$GPGLL,4459.0172,N,09314.6463,W,184046.000,A,A*44
$GPGSA,A,3,03,26,29,31,23,,,,,,,,2.06,1.83,0.94*0E
$GPGSV,3,1,11,26,67,098,28,16,57,167,17,23,51,304,29,03,48,237,18*7F
$GPGSV,3,2,11,22,37,210,27,31,34,065,33,14,21,118,17,09,14,304,*7F
$GPGSV,3,3,11,29,13,047,41,06,03,316,15,46,,,*71
$GPRMC,184046.000,A,4459.0172,N,09314.6463,W,0.15,94.54,110317,,,A*4E
$GPVTG,94.54,T,,M,0.15,N,0.28,K,A*0F
$PGTOP,11,2*6E
$GPGGA,184047.000,4459.0172,N,09314.6465,W,1,05,1.83,245.7,M,-31.9,M,,*5B
$GPGLL,4459.0172,N,09314.6465,W,184047.000,A,A*43
$GPGSA,A,3,03,26,29,31,23,,,,,,,,2.06,1.83,0.94*0E
$GPGSV,3,1,11,26,67,098,28,16,57,167,18,23,52,304,29,03,48,237,19*72
$GPGSV,3,2,11,22,37,210,27,31,34,065,34,14,21,118,17,09,14,304,*78
$GPGSV,3,3,11,29,13,047,41,06,03,316,14,46,,,*70
$GPRMC,184047.000,A,4459.0172,N,09314.6465,W,0.16,40.94,110317,,,A*4F
$GPVTG,40.94,T,,M,0.16,N,0.29,K,A*08
$PGTOP,11,2*6E
$GPGGA,184048.000,4459.0173,N,09314.6464,W,1,05,1.83,245.6,M,-31.9,M,,*55
$GPGLL,4459.0173,N,09314.6464,W,184048.000,A,A*4C
$GPGSA,A,3,03,26,29,31,23,,,,,,,,2.06,1.83,0.94*0E
$GPGSV,3,1,11,26,67,098,28,16,57,167,19,23,52,304,28,03,48,237,19*72
$GPGSV,3,2,11,22,37,210,27,31,34,065,34,14,21,118,17,09,14,304,*78
$GPGSV,3,3,11,29,13,047,41,06,03,316,14,46,,,*70
$GPRMC,184048.000,A,4459.0173,N,09314.6464,W,0.19,38.27,110317,,,A*48
$GPVTG,38.27,T,,M,0.19,N,0.36,K,A*0E
$PGTOP,11,2*6E
$GPGGA,184049.000,4459.0171,N,09314.6462,W,1,05,1.83,245.8,M,-31.9,M,,*5E
$GPGLL,4459.0171,N,09314.6462,W,184049.000,A,A*49
$GPGSA,A,3,03,26,29,31,23,,,,,,,,2.06,1.83,0.94*0E
$GPGSV,3,1,11,26,67,098,29,16,57,167,20,23,52,304,28,03,48,237,18*78
$GPGSV,3,2,11,22,37,210,27,31,34,065,34,14,21,118,18,09,14,304,*77
$GPGSV,3,3,11,29,13,047,41,06,03,316,14,46,,,*70
$GPRMC,184049.000,A,4459.0171,N,09314.6462,W,0.18,97.26,110317,,,A*48
$GPVTG,97.26,T,,M,0.18,N,0.32,K,A*0F
$PGTOP,11,2*6E
$GPGGA,184050.000,4459.0171,N,09314.6463,W,1,05,1.83,245.9,M,-31.9,M,,*56
$GPGLL,4459.0171,N,09314.6463,W,184050.000,A,A*40
$GPGSA,A,3,03,26,29,31,23,,,,,,,,2.06,1.83,0.94*0E
$GPGSV,3,1,11,26,67,097,29,16,57,167,21,23,52,304,28,03,48,237,18*76
$GPGSV,3,2,11,22,37,210,27,31,34,065,34,14,21,118,19,09,14,304,*76
$GPGSV,3,3,11,29,13,047,41,06,03,316,14,46,,,*70
$GPRMC,184050.000,A,4459.0171,N,09314.6463,W,0.04,157.51,110317,,,A*71
$GPVTG,157.51,T,,M,0.04,N,0.07,K,A*39
$PGTOP,11,2*6E
$GPGGA,184051.000,4459.0171,N,09314.6465,W,1,05,1.83,246.1,M,-31.9,M,,*5A
$GPGLL,4459.0171,N,09314.6465,W,184051.000,A,A*47
$GPGSA,A,3,03,26,29,31,23,,,,,,,,2.06,1.83,0.94*0E
$GPGSV,3,1,11,26,67,097,29,16,57,167,21,23,52,304,28,03,48,237,18*76
$GPGSV,3,2,11,22,37,210,27,31,34,065,34,14,21,118,19,09,14,304,*76
$GPGSV,3,3,11,29,13,047,41,06,03,316,14,46,,,*70
$GPRMC,184051.000,A,4459.0171,N,09314.6465,W,0.07,228.22,110317,,,A*7A
$GPVTG,228.22,T,,M,0.07,N,0.13,K,A*30
$PGTOP,11,2*6E
$GPGGA,184052.000,4459.0171,N,09314.6465,W,1,05,1.83,246.1,M,-31.9,M,,*59
$GPGLL,4459.0171,N,09314.6465,W,184052.000,A,A*44
$GPGSA,A,3,03,26,29,31,23,,,,,,,,2.06,1.83,0.94*0E
$GPGSV,3,1,11,26,67,097,29,16,57,167,21,23,52,304,29,03,48,237,18*77
$GPGSV,3,2,11,22,37,210,27,31,34,065,34,14,21,118,19,09,14,304,*76
$GPGSV,3,3,11,29,13,047,41,06,03,316,15,47,,,*70
$GPRMC,184052.000,A,4459.0171,N,09314.6465,W,0.13,76.68,110317,,,A*4B
$GPVTG,76.68,T,,M,0.13,N,0.23,K,A*01
$PGTOP,11,2*6E
$GPGGA,184053.000,4459.0171,N,09314.6464,W,1,05,1.83,246.1,M,-31.9,M,,*59
$GPGLL,4459.0171,N,09314.6464,W,184053.000,A,A*44
$GPGSA,A,3,03,26,29,31,23,,,,,,,,2.06,1.83,0.94*0E
$GPGSV,3,1,11,26,67,097,29,16,57,167,21,23,52,304,29,03,48,237,18*77
$GPGSV,3,2,11,22,37,210,27,31,34,065,34,14,21,118,19,09,14,304,*76
$GPGSV,3,3,11,29,13,047,41,06,03,316,14,47,,,*71
$GPRMC,184053.000,A,4459.0171,N,09314.6464,W,0.04,90.22,110317,,,A*4B
$GPVTG,90.22,T,,M,0.04,N,0.08,K,A*08
$PGTOP,11,2*6E
$GPGGA,184054.000,4459.0171,N,09314.6464,W,1,05,1.83,246.1,M,-31.9,M,,*5E
$GPGLL,4459.0171,N,09314.6464,W,184054.000,A,A*43
$GPGSA,A,3,03,26,29,31,23,,,,,,,,2.06,1.83,0.94*0E
$GPGSV,3,1,11,26,67,097,29,16,57,167,22,23,52,304,29,03,48,237,18*74
$GPGSV,3,2,11,22,37,210,27,31,34,065,34,14,21,118,19,09,14,304,*76
$GPGSV,3,3,11,29,13,047,41,06,03,316,15,47,,,*70
$GPRMC,184054.000,A,4459.0171,N,09314.6464,W,0.14,340.67,110317,,,A*72
$GPVTG,340.67,T,,M,0.14,N,0.26,K,A*3A
$PGTOP,11,2*6E
$GPGGA,184055.000,4459.0172,N,09314.6464,W,1,05,1.83,246.1,M,-31.9,M,,*5C
$GPGLL,4459.0172,N,09314.6464,W,184055.000,A,A*41
$GPGSA,A,3,03,26,29,31,23,,,,,,,,2.06,1.83,0.94*0E
$GPGSV,3,1,11,26,67,097,29,16,57,167,21,23,52,304,30,03,48,237,19*7E
$GPGSV,3,2,11,22,37,210,26,31,34,065,34,14,21,118,19,09,14,304,*77
$GPGSV,3,3,11,29,13,047,41,06,03,316,15,47,,,*70
$GPRMC,184055.000,A,4459.0172,N,09314.6464,W,0.07,166.33,110317,,,A*75
$GPVTG,166.33,T,,M,0.07,N,0.13,K,A*39
$PGTOP,11,2*6E
$GPGGA,184056.000,4459.0172,N,09314.6464,W,1,05,1.83,246.1,M,-31.9,M,,*5F
$GPGLL,4459.0172,N,09314.6464,W,184056.000,A,A*42
$GPGSA,A,3,03,26,29,31,23,,,,,,,,2.06,1.83,0.94*0E
$GPGSV,3,1,11,26,67,097,29,16,57,167,20,23,52,304,30,03,48,237,19*7F
$GPGSV,3,2,11,22,37,210,26,31,34,065,34,14,21,118,19,09,14,304,*77
$GPGSV,3,3,11,29,13,047,41,06,03,316,15,47,,,*70
$GPRMC,184056.000,A,4459.0172,N,09314.6464,W,0.11,321.40,110317,,,A*74
$GPVTG,321.40,T,,M,0.11,N,0.21,K,A*3A
$PGTOP,11,2*6E
$GPGGA,184057.000,4459.0172,N,09314.6464,W,1,05,1.83,246.1,M,-31.9,M,,*5E
$GPGLL,4459.0172,N,09314.6464,W,184057.000,A,A*43
$GPGSA,A,3,03,26,29,31,23,,,,,,,,2.06,1.83,0.94*0E
$GPGSV,3,1,11,26,67,097,29,16,57,167,20,23,52,304,30,03,48,237,19*7F
$GPGSV,3,2,11,22,37,210,26,31,34,065,34,14,21,118,19,09,14,304,*77
$GPGSV,3,3,11,29,13,047,41,06,03,316,15,47,,,*70
$GPRMC,184057.000,A,4459.0172,N,09314.6464,W,0.11,1.62,110317,,,A*74
$GPVTG,1.62,T,,M,0.11,N,0.21,K,A*3B
$PGTOP,11,2*6E
$GPGGA,184058.000,4459.0172,N,09314.6464,W,1,05,2.12,246.1,M,-31.9,M,,*5A
$GPGLL,4459.0172,N,09314.6464,W,184058.000,A,A*4C
$GPGSA,A,3,03,26,29,31,23,,,,,,,,3.49,2.12,2.78*0F
$GPGSV,3,1,11,26,67,097,29,16,57,167,21,23,52,304,30,03,48,237,20*74
$GPGSV,3,2,11,22,37,210,26,31,34,065,34,14,21,118,19,09,14,304,*77
$GPGSV,3,3,11,29,13,047,41,06,03,316,16,47,,,*73
$GPRMC,184058.000,A,4459.0172,N,09314.6464,W,0.05,90.52,110317,,,A*45
$GPVTG,90.52,T,,M,0.05,N,0.09,K,A*0F
$PGTOP,11,2*6E
$GPGGA,184059.000,4459.0172,N,09314.6464,W,1,05,1.83,246.1,M,-31.9,M,,*50
$GPGLL,4459.0172,N,09314.6464,W,184059.000,A,A*4D
$GPGSA,A,3,03,26,29,31,23,,,,,,,,2.06,1.83,0.94*0E
$GPGSV,3,1,11,26,67,097,29,16,57,167,21,23,52,304,30,03,48,237,20*74
$GPGSV,3,2,11,22,37,210,25,31,34,065,34,14,21,118,20,09,14,304,*7E
$GPGSV,3,3,11,29,13,047,41,06,03,316,16,49,,,*7D
$GPRMC,184059.000,A,4459.0172,N,09314.6464,W,0.04,166.88,110317,,,A*7A
$GPVTG,166.88,T,,M,0.04,N,0.08,K,A*30
$PGTOP,11,2*6E
$GPGGA,184100.000,4459.0172,N,09314.6464,W,1,05,1.83,246.1,M,-31.9,M,,*5D
$GPGLL,4459.0172,N,09314.6464,W,184100.000,A,A*40
$GPGSA,A,3,03,26,29,31,23,,,,,,,,2.06,1.83,0.94*0E
$GPGSV,3,1,11,26,67,097,28,16,57,167,21,23,52,304,29,03,48,237,20*7D
$GPGSV,3,2,11,22,37,210,24,31,34,065,33,14,21,118,20,09,14,304,*78
$GPGSV,3,3,11,29,13,047,40,06,03,316,15,49,,,*7F
$GPRMC,184100.000,A,4459.0172,N,09314.6464,W,0.09,165.12,110317,,,A*7A
$GPVTG,165.12,T,,M,0.09,N,0.17,K,A*33
$PGTOP,11,2*6E
$GPGGA,184101.000,4459.0172,N,09314.6464,W,1,05,1.83,246.1,M,-31.9,M,,*5C
$GPGLL,4459.0172,N,09314.6464,W,184101.000,A,A*41
$GPGSA,A,3,03,26,29,31,23,,,,,,,,2.06,1.83,0.94*0E
$GPGSV,3,1,11,26,67,097,27,16,57,167,21,23,52,304,29,03,48,237,20*72
$GPGSV,3,2,11,22,37,210,23,31,34,065,33,14,21,118,20,09,14,304,*7F
$GPGSV,3,3,11,29,13,047,40,06,03,316,14,49,,,*7E
$GPRMC,184101.000,A,4459.0172,N,09314.6464,W,0.07,158.41,110317,,,A*7D
$GPVTG,158.41,T,,M,0.07,N,0.12,K,A*30
$PGTOP,11,2*6E
$GPGGA,184102.000,4459.0172,N,09314.6464,W,1,05,1.83,246.1,M,-31.9,M,,*5F
$GPGLL,4459.0172,N,09314.6464,W,184102.000,A,A*42
$GPGSA,A,3,03,26,29,31,23,,,,,,,,2.06,1.83,0.94*0E
$GPGSV,3,1,11,26,67,097,26,16,57,167,21,23,52,304,28,03,48,236,19*79
$GPGSV,3,2,11,22,37,210,22,31,34,065,32,14,21,118,20,09,14,304,*7F
$GPGSV,3,3,11,29,13,047,39,06,03,316,14,49,,,*70
$GPRMC,184102.000,A,4459.0172,N,09314.6464,W,0.11,177.16,110317,,,A*76
$GPVTG,177.16,T,,M,0.11,N,0.21,K,A*38
$PGTOP,11,2*6E
$GPGGA,184103.000,4459.0171,N,09314.6464,W,1,05,1.83,246.1,M,-31.9,M,,*5D
$GPGLL,4459.0171,N,09314.6464,W,184103.000,A,A*40
$GPGSA,A,3,03,26,29,31,23,,,,,,,,2.06,1.83,0.94*0E
$GPGSV,3,1,11,26,67,097,26,16,57,167,20,23,52,304,28,03,48,236,18*79
$GPGSV,3,2,11,22,37,210,23,31,34,065,33,14,21,118,19,09,14,304,*75
$GPGSV,3,3,11,29,13,047,40,06,03,316,14,49,,,*7E
$GPRMC,184103.000,A,4459.0171,N,09314.6464,W,0.05,31.87,110317,,,A*4A
$GPVTG,31.87,T,,M,0.05,N,0.10,K,A*04
$PGTOP,11,2*6E
$GPGGA,184104.000,4459.0171,N,09314.6464,W,1,05,1.83,246.1,M,-31.9,M,,*5A
$GPGLL,4459.0171,N,09314.6464,W,184104.000,A,A*47
$GPGSA,A,3,03,26,29,31,23,,,,,,,,2.06,1.83,0.94*0E
$GPGSV,3,1,11,26,67,097,26,16,57,167,19,23,52,304,28,03,48,236,18*73
$GPGSV,3,2,11,22,37,210,23,31,34,065,34,14,21,118,19,09,14,304,*72
$GPGSV,3,3,11,29,13,047,40,06,03,316,14,49,,,*7E
$GPRMC,184104.000,A,4459.0171,N,09314.6464,W,0.08,166.11,110317,,,A*7C
$GPVTG,166.11,T,,M,0.08,N,0.15,K,A*30
$PGTOP,11,2*6E
$GPGGA,184105.000,4459.0171,N,09314.6464,W,1,05,1.83,246.1,M,-31.9,M,,*5B
$GPGLL,4459.0171,N,09314.6464,W,184105.000,A,A*46
$GPGSA,A,3,03,26,29,31,23,,,,,,,,2.06,1.83,0.94*0E
$GPGSV,3,1,11,26,67,097,26,16,57,167,18,23,52,304,27,03,48,236,18*7D
$GPGSV,3,2,11,22,37,210,23,31,34,065,34,14,21,118,19,09,14,304,*72
$GPGSV,3,3,11,29,13,047,40,06,03,315,14,49,,,*7D
$GPRMC,184105.000,A,4459.0171,N,09314.6464,W,0.07,179.65,110317,,,A*7F
$GPVTG,179.65,T,,M,0.07,N,0.13,K,A*34
$PGTOP,11,2*6E
$GPGGA,184106.000,4459.0171,N,09314.6464,W,1,05,1.83,246.1,M,-31.9,M,,*58
$GPGLL,4459.0171,N,09314.6464,W,184106.000,A,A*45
$GPGSA,A,3,03,26,29,31,23,,,,,,,,2.06,1.83,0.94*0E
$GPGSV,3,1,11,26,67,097,24,16,57,167,18,23,52,304,27,03,48,236,17*70
$GPGSV,3,2,11,22,37,210,23,51,36,199,,31,34,065,33,14,21,118,19*7E
$GPGSV,3,3,11,09,14,304,,29,13,047,40,06,03,315,14*4B
$GPRMC,184106.000,A,4459.0171,N,09314.6464,W,0.07,133.73,110317,,,A*75
$GPVTG,133.73,T,,M,0.07,N,0.12,K,A*3C
$PGTOP,11,2*6E
$GPGGA,184107.000,4459.0171,N,09314.6463,W,1,05,1.83,246.1,M,-31.9,M,,*5E
$GPGLL,4459.0171,N,09314.6463,W,184107.000,A,A*43
$GPGSA,A,3,03,26,29,31,23,,,,,,,,2.06,1.83,0.94*0E
$GPGSV,3,1,11,26,67,097,22,16,57,167,19,23,52,304,26,03,48,236,17*76
$GPGSV,3,2,11,22,37,210,23,51,36,199,,31,34,065,32,14,21,118,18*7E
$GPGSV,3,3,11,09,14,304,,29,13,047,39,06,03,315,14*45
$GPRMC,184107.000,A,4459.0171,N,09314.6463,W,0.01,78.32,110317,,,A*4E
$GPVTG,78.32,T,,M,0.01,N,0.03,K,A*01
$PGTOP,11,2*6E
$GPGGA,184108.000,4459.0171,N,09314.6463,W,1,05,1.83,246.1,M,-31.9,M,,*51
$GPGLL,4459.0171,N,09314.6463,W,184108.000,A,A*4C
$GPGSA,A,3,03,26,29,31,23,,,,,,,,2.06,1.83,0.94*0E
$GPGSV,3,1,11,26,67,097,21,16,57,167,19,23,52,304,25,03,48,236,17*76
$GPGSV,3,2,11,22,37,210,22,51,36,199,,31,34,065,31,14,21,118,18*7C
$GPGSV,3,3,11,09,15,304,,29,13,047,38,06,03,315,13*42
$GPRMC,184108.000,A,4459.0171,N,09314.6463,W,0.08,62.14,110317,,,A*47
$GPVTG,62.14,T,,M,0.08,N,0.14,K,A*01
$PGTOP,11,2*6E
$GPGGA,184109.000,4459.0171,N,09314.6463,W,1,05,1.83,246.1,M,-31.9,M,,*50
$GPGLL,4459.0171,N,09314.6463,W,184109.000,A,A*4D
$GPGSA,A,3,03,26,29,31,23,,,,,,,,2.06,1.83,0.94*0E
$GPGSV,3,1,11,26,67,097,25,16,57,167,20,23,52,304,25,03,48,236,17*78
$GPGSV,3,2,11,22,37,210,22,51,36,199,,31,34,065,31,14,21,118,18*7C
$GPGSV,3,3,11,09,15,304,,29,13,047,39,06,03,315,14*44
$GPRMC,184109.000,A,4459.0171,N,09314.6463,W,0.13,131.54,110317,,,A*7F
$GPVTG,131.54,T,,M,0.13,N,0.25,K,A*3A
$PGTOP,11,2*6E
$GPGGA,184110.000,4459.0171,N,09314.6463,W,1,05,1.83,246.1,M,-31.9,M,,*58
$GPGLL,4459.0171,N,09314.6463,W,184110.000,A,A*45
$GPGSA,A,3,03,26,29,31,23,,,,,,,,2.06,1.83,0.94*0E
$GPGSV,3,1,11,26,67,097,23,16,57,167,20,23,52,304,25,03,48,236,17*7E
$GPGSV,3,2,11,22,37,210,21,51,36,199,,31,34,065,30,14,21,118,18*7E
$GPGSV,3,3,11,09,15,304,,29,13,047,39,06,03,315,14*44
$GPRMC,184110.000,A,4459.0171,N,09314.6463,W,0.10,157.92,110317,,,A*7E
$GPVTG,157.92,T,,M,0.10,N,0.18,K,A*3D
$PGTOP,11,2*6E
$GPGGA,184111.000,4459.0170,N,09314.6462,W,1,05,1.83,246.1,M,-31.9,M,,*59
$GPGLL,4459.0170,N,09314.6462,W,184111.000,A,A*44
$GPGSA,A,3,03,26,29,31,23,,,,,,,,2.06,1.83,0.94*0E
$GPGSV,3,1,11,26,67,097,24,16,57,167,21,23,52,304,26,03,48,236,18*74
$GPGSV,3,2,11,22,37,210,22,51,36,199,,31,34,065,30,14,21,118,19*7C
$GPGSV,3,3,11,09,15,304,,29,13,047,39,06,03,315,14*44
$GPRMC,184111.000,A,4459.0170,N,09314.6462,W,0.14,115.40,110317,,,A*72
$GPVTG,115.40,T,,M,0.14,N,0.27,K,A*3C
$PGTOP,11,2*6E
$GPGGA,184112.000,4459.0170,N,09314.6462,W,1,05,1.83,246.1,M,-31.9,M,,*5A
$GPGLL,4459.0170,N,09314.6462,W,184112.000,A,A*47
$GPGSA,A,3,03,26,29,31,23,,,,,,,,2.06,1.83,0.94*0E
$GPGSV,3,1,11,26,67,097,24,16,57,167,20,23,52,304,27,03,48,236,18*74
$GPGSV,3,2,11,22,37,210,22,51,36,199,,31,34,065,29,14,21,118,19*74
$GPGSV,3,3,11,09,15,304,,29,13,047,39,06,03,315,13*43
$GPRMC,184112.000,A,4459.0170,N,09314.6462,W,0.08,113.91,110317,,,A*76
$GPVTG,113.91,T,,M,0.08,N,0.16,K,A*39
$PGTOP,11,2*6E
$GPGGA,184113.000,4459.0170,N,09314.6462,W,1,05,1.83,246.1,M,-31.9,M,,*5B
$GPGLL,4459.0170,N,09314.6462,W,184113.000,A,A*46
$GPGSA,A,3,03,26,29,31,23,,,,,,,,2.06,1.83,0.94*0E
$GPGSV,3,1,11,26,67,097,25,16,57,167,19,23,52,304,28,03,48,236,18*70
$GPGSV,3,2,11,22,37,210,22,51,36,199,,31,34,065,31,14,21,118,19*7D
$GPGSV,3,3,11,09,15,304,,29,13,047,40,06,03,315,13*4D
$GPRMC,184113.000,A,4459.0170,N,09314.6462,W,0.05,4.31,110317,,,A*77
$GPVTG,4.31,T,,M,0.05,N,0.09,K,A*37
$PGTOP,11,2*6E
$GPGGA,184114.000,4459.0170,N,09314.6462,W,1,05,2.12,246.1,M,-31.9,M,,*57
$GPGLL,4459.0170,N,09314.6462,W,184114.000,A,A*41
$GPGSA,A,3,03,26,29,31,23,,,,,,,,3.48,2.12,2.77*01
$GPGSV,3,1,11,26,67,097,26,16,57,167,19,23,52,304,29,03,48,236,17*7D
$GPGSV,3,2,11,22,37,210,22,51,36,199,,31,34,065,32,14,21,118,20*74
$GPGSV,3,3,11,09,15,304,,29,13,047,40,06,03,315,13*4D
$GPRMC,184114.000,A,4459.0170,N,09314.6462,W,0.17,79.39,110317,,,A*41
$GPVTG,79.39,T,,M,0.17,N,0.32,K,A*0E
$PGTOP,11,2*6E
$GPGGA,184115.000,4459.0170,N,09314.6461,W,1,05,1.83,246.2,M,-31.9,M,,*5D
$GPGLL,4459.0170,N,09314.6461,W,184115.000,A,A*43
$GPGSA,A,3,03,26,29,31,23,,,,,,,,2.06,1.83,0.94*0E
$GPGSV,3,1,11,26,67,097,27,16,57,167,20,23,52,304,30,03,48,236,17*7E
$GPGSV,3,2,11,22,37,210,22,51,36,199,,31,34,065,33,14,21,118,20*75
$GPGSV,3,3,11,09,15,304,,29,13,047,40,06,03,315,14*4A
$GPRMC,184115.000,A,4459.0170,N,09314.6461,W,0.07,335.54,110317,,,A*72
$GPVTG,335.54,T,,M,0.07,N,0.14,K,A*3B
$PGTOP,11,2*6E
$GPGGA,184116.000,4459.0171,N,09314.6461,W,1,05,1.83,246.2,M,-31.9,M,,*5F
$GPGLL,4459.0171,N,09314.6461,W,184116.000,A,A*41
$GPGSA,A,3,03,26,29,31,23,,,,,,,,2.06,1.83,0.94*0E
$GPGSV,3,1,11,26,67,097,27,16,57,167,20,23,52,304,31,03,48,236,17*7F
$GPGSV,3,2,11,22,37,210,22,31,34,065,34,48,25,229,,14,21,118,19*7A
$GPGSV,3,3,11,09,15,304,,29,13,047,40,06,03,315,14*4A
$GPRMC,184116.000,A,4459.0171,N,09314.6461,W,0.17,39.70,110317,,,A*48
$GPVTG,39.70,T,,M,0.17,N,0.32,K,A*07
$PGTOP,11,2*6E
$GPGGA,184117.000,4459.0171,N,09314.6460,W,1,05,1.83,246.2,M,-31.9,M,,*5F
$GPGLL,4459.0171,N,09314.6460,W,184117.000,A,A*41
$GPGSA,A,3,03,26,29,31,23,,,,,,,,2.06,1.83,0.94*0E
$GPGSV,3,1,11,26,67,097,27,16,57,167,19,23,52,304,31,03,48,236,18*7A
$GPGSV,3,2,11,22,37,210,22,31,34,065,34,48,25,229,,14,21,118,19*7A
$GPGSV,3,3,11,09,15,304,,29,13,047,41,06,03,315,15*4A
$GPRMC,184117.000,A,4459.0171,N,09314.6460,W,0.21,115.55,110317,,,A*75
$GPVTG,115.55,T,,M,0.21,N,0.38,K,A*30
$PGTOP,11,2*6E
$GPGGA,184118.000,4459.0171,N,09314.6460,W,1,05,1.83,246.2,M,-31.9,M,,*50
$GPGLL,4459.0171,N,09314.6460,W,184118.000,A,A*4E
$GPGSA,A,3,03,26,29,31,23,,,,,,,,2.06,1.83,0.94*0E
$GPGSV,3,1,11,26,67,097,25,16,57,167,18,23,52,304,32,03,48,236,18*7A
$GPGSV,3,2,11,22,37,210,21,31,34,065,34,48,25,229,,14,21,118,18*78
$GPGSV,3,3,11,09,15,304,,29,13,047,40,06,03,315,15*4B
$GPRMC,184118.000,A,4459.0171,N,09314.6460,W,0.16,143.60,110317,,,A*7B
$GPVTG,143.60,T,,M,0.16,N,0.29,K,A*31
$PGTOP,11,2*6E
$GPGGA,184119.000,4459.0170,N,09314.6459,W,1,05,1.83,246.2,M,-31.9,M,,*5A
$GPGLL,4459.0170,N,09314.6459,W,184119.000,A,A*44
$GPGSA,A,3,03,26,29,31,23,,,,,,,,2.06,1.83,0.94*0E
$GPGSV,3,1,11,26,67,097,23,16,57,167,18,23,52,304,32,03,48,236,18*7C
$GPGSV,3,2,11,22,37,210,21,31,34,065,35,48,25,229,,14,21,118,17*76
$GPGSV,3,3,11,09,15,304,,29,13,047,40,06,03,315,15*4B
$GPRMC,184119.000,A,4459.0170,N,09314.6459,W,0.19,137.43,110317,,,A*7C
$GPVTG,137.43,T,,M,0.19,N,0.36,K,A*32
$PGTOP,11,2*6E
$GPGGA,184120.000,4459.0170,N,09314.6459,W,1,05,1.83,246.2,M,-31.9,M,,*50
$GPGLL,4459.0170,N,09314.6459,W,184120.000,A,A*4E
$GPGSA,A,3,03,26,29,31,23,,,,,,,,2.06,1.83,0.94*0E
$GPGSV,3,1,11,26,67,097,22,16,57,167,17,23,52,304,33,03,48,236,18*73
$GPGSV,3,2,11,22,37,210,21,31,34,065,35,48,25,229,,14,21,118,16*77
$GPGSV,3,3,11,09,15,304,,29,13,047,40,06,03,315,16*48
$GPRMC,184120.000,A,4459.0170,N,09314.6459,W,0.26,156.22,110317,,,A*7A
$GPVTG,156.22,T,,M,0.26,N,0.49,K,A*36
$PGTOP,11,2*6E
$GPGGA,184121.000,4459.0169,N,09314.6458,W,1,05,1.83,246.2,M,-31.9,M,,*58
$GPGLL,4459.0169,N,09314.6458,W,184121.000,A,A*46
$GPGSA,A,3,03,26,29,31,23,,,,,,,,2.06,1.83,0.94*0E
$GPGSV,3,1,11,26,67,097,22,16,57,167,18,23,52,304,26,03,48,236,18*78
$GPGSV,3,2,11,22,37,209,20,31,34,065,35,48,25,229,,14,21,118,15*7D
$GPGSV,3,3,11,09,15,304,25,29,13,047,40,06,03,315,16*4F
$GPRMC,184121.000,A,4459.0169,N,09314.6458,W,0.25,155.07,110317,,,A*75
$GPVTG,155.07,T,,M,0.25,N,0.45,K,A*3D
$PGTOP,11,2*6E
$GPGGA,184122.000,4459.0169,N,09314.6458,W,1,05,1.83,246.2,M,-31.9,M,,*5B
$GPGLL,4459.0169,N,09314.6458,W,184122.000,A,A*45
$GPGSA,A,3,03,26,29,31,23,,,,,,,,2.06,1.83,0.94*0E
$GPGSV,3,1,11,26,67,097,22,16,57,167,18,23,52,304,27,03,48,236,17*76
$GPGSV,3,2,11,22,37,209,19,31,34,065,35,48,25,229,,14,21,118,14*76
$GPGSV,3,3,11,09,15,304,25,29,13,047,40,06,03,315,16*4F
$GPRMC,184122.000,A,4459.0169,N,09314.6458,W,0.23,164.35,110317,,,A*73
$GPVTG,164.35,T,,M,0.23,N,0.43,K,A*3E
$PGTOP,11,2*6E
$GPGGA,184123.000,4459.0168,N,09314.6458,W,1,05,1.83,246.2,M,-31.9,M,,*5B
$GPGLL,4459.0168,N,09314.6458,W,184123.000,A,A*45
$GPGSA,A,3,03,26,29,31,23,,,,,,,,2.06,1.83,0.94*0E
$GPGSV,3,1,11,26,67,097,21,16,57,167,18,23,52,304,28,03,48,236,17*7A
$GPGSV,3,2,11,22,37,209,18,31,34,065,35,48,25,229,,14,21,118,14*77
$GPGSV,3,3,11,09,15,304,23,29,13,047,39,06,03,315,16*47
$GPRMC,184123.000,A,4459.0168,N,09314.6458,W,0.17,201.79,110317,,,A*7C
$GPVTG,201.79,T,,M,0.17,N,0.31,K,A*34
$PGTOP,11,2*6E
$GPGGA,184124.000,4459.0168,N,09314.6458,W,1,05,1.83,246.2,M,-31.9,M,,*5C
$GPGLL,4459.0168,N,09314.6458,W,184124.000,A,A*42
$GPGSA,A,3,03,26,29,31,23,,,,,,,,2.06,1.83,0.94*0E
$GPGSV,3,1,11,26,67,097,20,16,57,167,17,23,52,304,28,03,48,236,18*7B
$GPGSV,3,2,11,22,37,209,17,31,34,065,28,48,25,229,,14,21,118,14*74
$GPGSV,3,3,11,09,15,304,25,29,13,047,38,06,03,315,15*43
$GPRMC,184124.000,A,4459.0168,N,09314.6458,W,0.09,166.90,110317,,,A*71
$GPVTG,166.90,T,,M,0.09,N,0.17,K,A*3A
$PGTOP,11,2*6E
$GPGGA,184125.000,4459.0167,N,09314.6458,W,1,05,1.83,246.2,M,-31.9,M,,*52
$GPGLL,4459.0167,N,09314.6458,W,184125.000,A,A*4C
$GPGSA,A,3,03,26,29,31,23,,,,,,,,2.06,1.83,0.94*0E
$GPGSV,3,1,11,26,67,096,19,16,57,167,17,23,52,304,29,03,48,236,19*70
$GPGSV,3,2,11,22,37,209,18,31,34,065,35,48,25,229,,14,21,118,14*77
$GPGSV,3,3,11,09,15,304,19,29,13,047,40,06,03,315,15*43
$GPRMC,184125.000,A,4459.0167,N,09314.6458,W,0.05,183.41,110317,,,A*74
$GPVTG,183.41,T,,M,0.05,N,0.09,K,A*3E
$PGTOP,11,2*6E
$GPGGA,184126.000,4459.0167,N,09314.6458,W,1,05,1.83,246.2,M,-31.9,M,,*51
$GPGLL,4459.0167,N,09314.6458,W,184126.000,A,A*4F
$GPGSA,A,3,03,26,29,31,23,,,,,,,,2.06,1.83,0.94*0E
$GPGSV,3,1,11,26,67,096,21,16,57,167,19,23,52,304,31,03,48,236,20*76
$GPGSV,3,2,11,22,37,209,19,31,34,065,35,14,21,118,15,09,15,304,20*7D
$GPGSV,3,3,11,29,13,047,41,06,03,315,17,34,,,*75
$GPRMC,184126.000,A,4459.0167,N,09314.6458,W,0.10,83.09,110317,,,A*4E
$GPVTG,83.09,T,,M,0.10,N,0.19,K,A*06
$PGTOP,11,2*6E
$GPGGA,184127.000,4459.0167,N,09314.6458,W,1,05,1.83,246.2,M,-31.9,M,,*50
$GPGLL,4459.0167,N,09314.6458,W,184127.000,A,A*4E
$GPGSA,A,3,03,26,29,31,23,,,,,,,,2.06,1.83,0.94*0E
$GPGSV,3,1,11,26,67,096,29,16,57,167,19,23,52,304,32,03,48,236,20*7D
$GPGSV,3,2,11,22,37,209,20,31,34,065,35,14,21,118,16,09,15,304,20*74
$GPGSV,3,3,11,29,13,047,42,06,03,315,18,34,,,*79
$GPRMC,184127.000,A,4459.0167,N,09314.6458,W,0.09,147.57,110317,,,A*75
$GPVTG,147.57,T,,M,0.09,N,0.17,K,A*32
$PGTOP,11,2*6E
$GPGGA,184128.000,4459.0167,N,09314.6457,W,1,05,1.83,246.3,M,-31.9,M,,*51
$GPGLL,4459.0167,N,09314.6457,W,184128.000,A,A*4E
$GPGSA,A,3,03,26,29,31,23,,,,,,,,2.06,1.83,0.94*0E
$GPGSV,3,1,11,26,67,096,27,16,57,167,19,23,52,304,33,03,48,236,20*72
$GPGSV,3,2,11,22,37,209,21,31,34,065,35,14,21,118,17,09,15,304,21*75
$GPGSV,3,3,11,29,13,047,43,06,03,315,18,34,,,*78
$GPRMC,184128.000,A,4459.0167,N,09314.6457,W,0.16,226.42,110317,,,A*7B
$GPVTG,226.42,T,,M,0.16,N,0.29,K,A*31
$PGTOP,11,2*6E
$GPGGA,184129.000,4459.0167,N,09314.6458,W,1,05,1.83,246.3,M,-31.9,M,,*5F
$GPGLL,4459.0167,N,09314.6458,W,184129.000,A,A*40
$GPGSA,A,3,03,26,29,31,23,,,,,,,,2.06,1.83,0.94*0E
$GPGSV,3,1,11,26,67,096,26,16,57,167,19,23,52,304,34,03,48,236,21*75
$GPGSV,3,2,11,22,37,209,21,31,34,065,35,14,21,118,17,09,15,304,22*76
$GPGSV,3,3,11,29,13,047,43,06,03,315,18,34,,,*78
$GPRMC,184129.000,A,4459.0167,N,09314.6458,W,0.14,305.64,110317,,,A*73
$GPVTG,305.64,T,,M,0.14,N,0.26,K,A*38
$PGTOP,11,2*6E
$GPGGA,184130.000,4459.0167,N,09314.6458,W,1,05,1.83,246.3,M,-31.9,M,,*57
$GPGLL,4459.0167,N,09314.6458,W,184130.000,A,A*48
$GPGSA,A,3,03,26,29,31,23,,,,,,,,2.06,1.83,0.94*0E
$GPGSV,3,1,11,26,67,096,25,16,57,167,18,23,52,304,32,03,48,236,22*72
$GPGSV,3,2,11,22,37,209,21,31,34,065,34,14,21,118,17,09,15,304,22*77
$GPGSV,3,3,11,29,13,047,43,06,03,315,18,34,,,*78
$GPRMC,184130.000,A,4459.0167,N,09314.6458,W,0.13,265.04,110317,,,A*7D
$GPVTG,265.04,T,,M,0.13,N,0.24,K,A*3C
$PGTOP,11,2*6E
$GPGGA,184131.000,4459.0167,N,09314.6459,W,1,05,1.83,246.3,M,-31.9,M,,*57
$GPGLL,4459.0167,N,09314.6459,W,184131.000,A,A*48
$GPGSA,A,3,03,26,29,31,23,,,,,,,,2.06,1.83,0.94*0E
$GPGSV,3,1,11,26,67,096,27,16,57,167,18,23,52,304,34,03,48,236,21*75
$GPGSV,3,2,11,22,37,209,21,31,34,065,34,14,21,118,19,09,15,304,23*78
$GPGSV,3,3,11,29,13,047,43,06,03,315,18,34,,,*78
$GPRMC,184131.000,A,4459.0167,N,09314.6459,W,0.17,173.45,110317,,,A*78
$GPVTG,173.45,T,,M,0.17,N,0.32,K,A*3E
$PGTOP,11,2*6E
$GPGGA,184132.000,4459.0167,N,09314.6459,W,1,05,1.83,246.3,M,-31.9,M,,*54
$GPGLL,4459.0167,N,09314.6459,W,184132.000,A,A*4B
$GPGSA,A,3,03,26,29,31,23,,,,,,,,2.06,1.83,0.94*0E
$GPGSV,3,1,11,26,67,096,28,16,57,167,18,23,52,304,35,03,48,236,20*7A
$GPGSV,3,2,11,22,37,209,20,31,34,065,34,14,21,118,20,09,15,304,23*73
$GPGSV,3,3,11,29,13,047,44,06,03,315,18,35,,,*7E
$GPRMC,184132.000,A,4459.0167,N,09314.6459,W,0.14,93.17,110317,,,A*40
$GPVTG,93.17,T,,M,0.14,N,0.27,K,A*01
$PGTOP,11,2*6E
$GPGGA,184133.000,4459.0167,N,09314.6458,W,1,05,1.83,246.3,M,-31.9,M,,*54
$GPGLL,4459.0167,N,09314.6458,W,184133.000,A,A*4B
$GPGSA,A,3,03,26,29,31,23,,,,,,,,2.06,1.83,0.94*0E
$GPGSV,3,1,11,26,67,096,29,16,57,167,19,23,52,304,36,03,48,236,19*73
$GPGSV,3,2,11,22,37,209,21,31,34,065,34,14,21,118,21,09,15,304,24*74
$GPGSV,3,3,11,29,13,047,44,06,03,315,18,35,,,*7E
$GPRMC,184133.000,A,4459.0167,N,09314.6458,W,0.07,31.20,110317,,,A*4E
$GPVTG,31.20,T,,M,0.07,N,0.14,K,A*0F
$PGTOP,11,2*6E
$GPGGA,184134.000,4459.0167,N,09314.6458,W,1,05,1.83,246.3,M,-31.9,M,,*53
$GPGLL,4459.0167,N,09314.6458,W,184134.000,A,A*4C
$GPGSA,A,3,03,26,29,31,23,,,,,,,,2.06,1.83,0.94*0E
$GPGSV,3,1,11,26,67,096,29,16,57,167,19,23,52,304,36,03,48,236,18*72
$GPGSV,3,2,11,22,37,209,21,31,34,065,35,14,21,118,22,09,15,304,25*77
$GPGSV,3,3,11,29,13,047,44,06,03,315,18,35,,,*7E
$GPRMC,184134.000,A,4459.0167,N,09314.6458,W,0.07,9.94,110317,,,A*7D
$GPVTG,9.94,T,,M,0.07,N,0.12,K,A*3D
$PGTOP,11,2*6E
$GPGGA,184135.000,4459.0167,N,09314.6458,W,1,05,2.11,246.3,M,-31.9,M,,*5A
$GPGLL,4459.0167,N,09314.6458,W,184135.000,A,A*4D
$GPGSA,A,3,03,26,29,31,23,,,,,,,,3.46,2.11,2.75*0E
$GPGSV,3,1,11,26,67,096,29,16,57,167,19,23,52,304,36,03,48,236,19*73
$GPGSV,3,2,11,22,37,209,20,31,34,065,35,14,21,118,22,09,15,304,24*77
$GPGSV,3,3,11,29,13,047,44,06,03,315,18,35,,,*7E
$GPRMC,184135.000,A,4459.0167,N,09314.6458,W,0.13,190.09,110317,,,A*7C
$GPVTG,190.09,T,,M,0.13,N,0.24,K,A*38
$PGTOP,11,2*6E
$GPGGA,184136.000,4459.0167,N,09314.6458,W,1,05,1.83,246.3,M,-31.9,M,,*51
$GPGLL,4459.0167,N,09314.6458,W,184136.000,A,A*4E
$GPGSA,A,3,03,26,29,31,23,,,,,,,,2.06,1.83,0.94*0E
$GPGSV,3,1,11,26,67,096,29,16,57,167,19,23,52,304,36,03,48,236,18*72
$GPGSV,3,2,11,22,37,209,19,31,34,065,35,14,21,118,22,09,15,304,24*7D
$GPGSV,3,3,11,29,13,047,44,06,03,315,18,35,,,*7E
$GPRMC,184136.000,A,4459.0167,N,09314.6458,W,0.09,140.10,110317,,,A*71
$GPVTG,140.10,T,,M,0.09,N,0.16,K,A*37
$PGTOP,11,2*6E
$GPGGA,184137.000,4459.0167,N,09314.6457,W,1,05,1.83,246.3,M,-31.9,M,,*5F
$GPGLL,4459.0167,N,09314.6457,W,184137.000,A,A*40
$GPGSA,A,3,03,26,29,31,23,,,,,,,,2.06,1.83,0.94*0E
$GPGSV,3,1,11,26,67,096,30,16,57,167,19,23,52,304,37,03,48,236,18*7B
$GPGSV,3,2,11,22,37,209,19,31,34,065,35,14,21,118,22,09,15,304,24*7D
$GPGSV,3,3,11,29,13,047,44,06,03,315,17,35,,,*71
$GPRMC,184137.000,A,4459.0167,N,09314.6457,W,0.22,162.18,110317,,,A*7E
$GPVTG,162.18,T,,M,0.22,N,0.41,K,A*34
$PGTOP,11,2*6E
$GPGGA,184138.000,4459.0166,N,09314.6457,W,1,05,1.83,246.3,M,-31.9,M,,*51
$GPGLL,4459.0166,N,09314.6457,W,184138.000,A,A*4E
$GPGSA,A,3,03,26,29,31,23,,,,,,,,2.06,1.83,0.94*0E
$GPGSV,3,1,11,26,67,096,29,16,57,167,19,23,52,304,37,03,48,236,18*73
$GPGSV,3,2,11,22,37,209,18,31,34,065,35,14,21,118,21,09,15,304,22*79
$GPGSV,3,3,11,29,13,047,44,06,03,315,17,36,,,*72
$GPRMC,184138.000,A,4459.0166,N,09314.6457,W,0.18,182.93,110317,,,A*74
$GPVTG,182.93,T,,M,0.18,N,0.33,K,A*35
$PGTOP,11,2*6E
$GPGGA,184139.000,4459.0165,N,09314.6457,W,1,05,1.83,246.3,M,-31.9,M,,*53
$GPGLL,4459.0165,N,09314.6457,W,184139.000,A,A*4C
$GPGSA,A,3,03,26,29,31,23,,,,,,,,2.06,1.83,0.94*0E
$GPGSV,3,1,11,26,67,096,29,16,57,167,19,23,52,304,37,03,48,236,19*72
$GPGSV,3,2,11,22,37,209,17,31,34,065,36,14,21,118,20,09,15,304,22*74
$GPGSV,3,3,11,29,13,047,44,06,03,315,17,36,,,*72
$GPRMC,184139.000,A,4459.0165,N,09314.6457,W,0.10,219.65,110317,,,A*76
$GPVTG,219.65,T,,M,0.10,N,0.19,K,A*3D
$PGTOP,11,2*6E
$GPGGA,184140.000,4459.0165,N,09314.6457,W,1,05,1.83,246.4,M,-31.9,M,,*5A
$GPGLL,4459.0165,N,09314.6457,W,184140.000,A,A*42
$GPGSA,A,3,03,26,29,31,23,,,,,,,,2.06,1.83,0.94*0E
$GPGSV,3,1,11,26,67,096,28,16,57,167,20,23,52,304,37,03,48,236,19*79
$GPGSV,3,2,11,22,37,209,17,31,34,065,36,14,21,118,20,09,15,304,22*74
$GPGSV,3,3,11,29,13,047,44,06,03,315,17,36,,,*72
$GPRMC,184140.000,A,4459.0165,N,09314.6457,W,0.07,168.24,110317,,,A*7E
$GPVTG,168.24,T,,M,0.07,N,0.12,K,A*30
$PGTOP,11,2*6E
$GPGGA,184141.000,4459.0165,N,09314.6457,W,1,05,1.83,246.4,M,-31.9,M,,*5B
$GPGLL,4459.0165,N,09314.6457,W,184141.000,A,A*43
$GPGSA,A,3,03,26,29,31,23,,,,,,,,2.06,1.83,0.94*0E
$GPGSV,3,1,11,26,67,096,28,16,57,167,20,23,52,304,37,03,48,236,19*79
$GPGSV,3,2,11,22,37,209,17,31,34,065,36,14,21,118,20,09,15,304,23*75
$GPGSV,3,3,11,29,13,047,44,06,03,315,17,36,,,*72
$GPRMC,184141.000,A,4459.0165,N,09314.6457,W,0.16,316.04,110317,,,A*76
$GPVTG,316.04,T,,M,0.16,N,0.29,K,A*31
$PGTOP,11,2*6E
$GPGGA,184142.000,4459.0165,N,09314.6458,W,1,05,1.83,246.4,M,-31.9,M,,*57
$GPGLL,4459.0165,N,09314.6458,W,184142.000,A,A*4F
$GPGSA,A,3,03,26,29,31,23,,,,,,,,2.06,1.83,0.94*0E
$GPGSV,3,1,11,26,67,096,28,16,57,167,19,23,52,304,37,03,48,236,18*72
$GPGSV,3,2,11,22,37,209,18,31,34,065,35,14,21,118,21,09,15,304,22*79
$GPGSV,3,3,11,29,13,047,44,06,03,315,18,36,,,*7D
$GPRMC,184142.000,A,4459.0165,N,09314.6458,W,0.10,313.12,110317,,,A*7E
$GPVTG,313.12,T,,M,0.10,N,0.18,K,A*37
$PGTOP,11,2*6E
$GPGGA,184143.000,4459.0166,N,09314.6458,W,1,05,1.83,246.4,M,-31.9,M,,*55
$GPGLL,4459.0166,N,09314.6458,W,184143.000,A,A*4D
$GPGSA,A,3,03,26,29,31,23,,,,,,,,2.06,1.83,0.94*0E
$GPGSV,3,1,11,26,67,096,28,16,57,167,18,23,52,304,36,03,48,236,18*72
$GPGSV,3,2,11,22,37,209,18,31,34,065,35,14,21,118,21,09,15,304,22*79
$GPGSV,3,3,11,29,13,047,44,06,03,315,19,36,,,*7C
$GPRMC,184143.000,A,4459.0166,N,09314.6458,W,0.08,297.20,110317,,,A*79
$GPVTG,297.20,T,,M,0.08,N,0.15,K,A*3F
$PGTOP,11,2*6E
$GPGGA,184144.000,4459.0166,N,09314.6458,W,1,05,1.83,246.4,M,-31.9,M,,*52
$GPGLL,4459.0166,N,09314.6458,W,184144.000,A,A*4A
$GPGSA,A,3,03,26,29,31,23,,,,,,,,2.06,1.83,0.94*0E
$GPGSV,3,1,11,26,67,096,27,16,57,167,19,23,52,304,36,03,48,236,18*7C
$GPGSV,3,2,11,22,37,209,17,31,34,065,24,14,21,118,20,09,15,304,23*76
$GPGSV,3,3,11,29,13,047,42,06,03,315,19,38,,,*74
$GPRMC,184144.000,A,4459.0166,N,09314.6458,W,0.05,325.08,110317,,,A*71
$GPVTG,325.08,T,,M,0.05,N,0.09,K,A*3D
$PGTOP,11,2*6E
$GPGGA,184145.000,4459.0166,N,09314.6458,W,1,05,1.83,246.4,M,-31.9,M,,*53
$GPGLL,4459.0166,N,09314.6458,W,184145.000,A,A*4B
$GPGSA,A,3,03,26,29,31,23,,,,,,,,2.06,1.83,0.94*0E
$GPGSV,3,1,11,26,67,096,29,16,57,167,20,23,52,304,37,03,48,236,18*79
$GPGSV,3,2,11,22,37,209,17,31,34,065,39,14,21,118,19,09,15,304,22*71
$GPGSV,3,3,11,29,13,047,41,06,03,315,20,38,,,*7D
$GPRMC,184145.000,A,4459.0166,N,09314.6458,W,0.07,337.65,110317,,,A*7A
$GPVTG,337.65,T,,M,0.07,N,0.13,K,A*3C
$PGTOP,11,2*6E
$GPGGA,184146.000,4459.0166,N,09314.6458,W,1,05,1.83,246.4,M,-31.9,M,,*50
$GPGLL,4459.0166,N,09314.6458,W,184146.000,A,A*48
$GPGSA,A,3,03,26,29,31,23,,,,,,,,2.06,1.83,0.94*0E
$GPGSV,3,1,11,26,67,096,28,16,57,167,19,23,52,304,37,03,48,236,20*79
$GPGSV,3,2,11,22,37,209,17,31,34,065,37,14,21,118,19,09,15,304,29*74
$GPGSV,3,3,11,29,13,047,41,06,03,315,19,38,,,*77
$GPRMC,184146.000,A,4459.0166,N,09314.6458,W,0.27,353.90,110317,,,A*73
$GPVTG,353.90,T,,M,0.27,N,0.50,K,A*31
$PGTOP,11,2*6E
$GPGGA,184147.000,4459.0167,N,09314.6458,W,1,05,2.11,246.4,M,-31.9,M,,*58
$GPGLL,4459.0167,N,09314.6458,W,184147.000,A,A*48
$GPGSA,A,3,03,26,29,31,23,,,,,,,,3.46,2.11,2.74*0F
$GPGSV,3,1,11,26,67,096,26,16,57,167,19,23,52,304,36,03,48,236,20*76
$GPGSV,3,2,11,22,37,209,17,31,34,065,36,14,21,118,19,09,15,304,27*7B
$GPGSV,3,3,11,29,13,047,42,06,03,315,18,38,,,*75
$GPRMC,184147.000,A,4459.0167,N,09314.6458,W,0.43,8.02,110317,,,A*77
$GPVTG,8.02,T,,M,0.43,N,0.80,K,A*38
$PGTOP,11,2*6E
$GPGGA,184148.000,4459.0168,N,09314.6458,W,1,05,2.10,246.4,M,-31.9,M,,*59
$GPGLL,4459.0168,N,09314.6458,W,184148.000,A,A*48
$GPGSA,A,3,03,26,29,31,23,,,,,,,,3.45,2.10,2.74*0D
$GPGSV,3,1,11,26,67,096,26,16,57,167,19,23,52,304,35,03,48,236,20*75
$GPGSV,3,2,11,22,37,209,17,31,34,065,35,14,21,118,18,09,15,304,26*78
$GPGSV,3,3,11,29,13,047,41,06,03,315,18,38,,,*76
$GPRMC,184148.000,A,4459.0168,N,09314.6458,W,0.26,351.88,110317,,,A*79
$GPVTG,351.88,T,,M,0.26,N,0.49,K,A*33
$PGTOP,11,2*6E
$GPGGA,184149.000,4459.0168,N,09314.6458,W,1,05,2.10,246.4,M,-31.9,M,,*58
$GPGLL,4459.0168,N,09314.6458,W,184149.000,A,A*49
$GPGSA,A,3,03,26,29,31,23,,,,,,,,3.45,2.10,2.74*0D
$GPGSV,3,1,11,26,67,096,27,16,57,167,19,23,52,304,36,03,48,236,20*77
$GPGSV,3,2,11,22,37,209,17,31,34,065,34,14,21,118,18,09,15,304,17*7B
$GPGSV,3,3,11,29,13,047,42,06,03,315,19,38,,,*74
$GPRMC,184149.000,A,4459.0168,N,09314.6458,W,0.18,352.78,110317,,,A*79
$GPVTG,352.78,T,,M,0.18,N,0.33,K,A*3F
$PGTOP,11,2*6E
$GPGGA,184150.000,4459.0169,N,09314.6458,W,1,05,2.10,246.4,M,-31.9,M,,*51
$GPGLL,4459.0169,N,09314.6458,W,184150.000,A,A*40
$GPGSA,A,3,03,26,29,31,23,,,,,,,,3.45,2.10,2.74*0D
$GPGSV,3,1,11,26,67,096,26,16,58,166,19,23,52,304,36,03,48,236,20*78
$GPGSV,3,2,11,22,37,209,16,31,34,065,33,14,21,118,18,09,15,304,17*7D
$GPGSV,3,3,11,29,13,047,42,06,03,315,19,38,,,*74
$GPRMC,184150.000,A,4459.0169,N,09314.6458,W,0.20,317.90,110317,,,A*7C
$GPVTG,317.90,T,,M,0.20,N,0.37,K,A*37
$PGTOP,11,2*6E
$GPGGA,184151.000,4459.0169,N,09314.6459,W,1,05,1.83,246.4,M,-31.9,M,,*58
$GPGLL,4459.0169,N,09314.6459,W,184151.000,A,A*40
$GPGSA,A,3,03,26,29,31,23,,,,,,,,2.06,1.83,0.94*0E
$GPGSV,3,1,11,26,67,096,27,16,58,166,20,23,52,304,37,03,48,236,20*72
$GPGSV,3,2,11,22,37,209,15,31,34,065,33,14,21,118,18,09,15,304,17*7E
$GPGSV,3,3,11,29,13,047,43,06,03,315,19,41,,,*7B
$GPRMC,184151.000,A,4459.0169,N,09314.6459,W,0.12,304.38,110317,,,A*7D
$GPVTG,304.38,T,,M,0.12,N,0.22,K,A*32
$PGTOP,11,2*6E
$GPGGA,184152.000,4459.0169,N,09314.6459,W,1,05,1.83,246.4,M,-31.9,M,,*5B
$GPGLL,4459.0169,N,09314.6459,W,184152.000,A,A*43
$GPGSA,A,3,03,26,29,31,23,,,,,,,,2.06,1.83,0.94*0E
$GPGSV,3,1,11,26,67,096,27,16,58,166,21,23,52,304,36,03,48,236,21*73
$GPGSV,3,2,11,22,37,209,15,31,34,065,33,14,21,118,19,09,15,304,18*70
$GPGSV,3,3,11,29,13,047,43,06,03,315,20,41,,,*71
$GPRMC,184152.000,A,4459.0169,N,09314.6459,W,0.13,354.76,110317,,,A*70
$GPVTG,354.76,T,,M,0.13,N,0.23,K,A*3D
$PGTOP,11,2*6E
$GPGGA,184153.000,4459.0170,N,09314.6459,W,1,05,2.10,246.4,M,-31.9,M,,*5B
$GPGLL,4459.0170,N,09314.6459,W,184153.000,A,A*4A
$GPGSA,A,3,03,26,29,31,23,,,,,,,,3.45,2.10,2.74*0D
$GPGSV,3,1,11,26,67,096,28,16,58,166,22,23,52,304,36,03,48,236,21*7F
$GPGSV,3,2,11,22,37,209,16,31,34,065,34,14,21,118,20,09,15,304,20*75
$GPGSV,3,3,11,29,13,047,43,06,03,315,21,41,,,*70
$GPRMC,184153.000,A,4459.0170,N,09314.6459,W,0.23,36.35,110317,,,A*4A
$GPVTG,36.35,T,,M,0.23,N,0.43,K,A*08
$PGTOP,11,2*6E
$GPGGA,184154.000,4459.0170,N,09314.6458,W,1,05,1.83,246.4,M,-31.9,M,,*54
$GPGLL,4459.0170,N,09314.6458,W,184154.000,A,A*4C
$GPGSA,A,3,03,26,29,31,23,,,,,,,,2.06,1.83,0.94*0E
$GPGSV,3,1,11,26,67,096,29,16,58,166,23,23,52,304,36,03,48,236,22*7C
$GPGSV,3,2,11,22,37,209,16,31,34,065,35,14,21,118,21,09,15,304,21*74
$GPGSV,3,3,11,29,13,047,43,06,03,315,21,41,,,*70
$GPRMC,184154.000,A,4459.0170,N,09314.6458,W,0.22,333.70,110317,,,A*7A
$GPVTG,333.70,T,,M,0.22,N,0.41,K,A*3C
$PGTOP,11,2*6E
$GPGGA,184155.000,4459.0171,N,09314.6459,W,1,05,1.83,246.4,M,-31.9,M,,*55
$GPGLL,4459.0171,N,09314.6459,W,184155.000,A,A*4D
$GPGSA,A,3,03,26,29,31,23,,,,,,,,2.06,1.83,0.94*0E
$GPGSV,3,1,11,26,67,096,28,16,58,166,24,23,52,304,36,03,48,236,23*7B
$GPGSV,3,2,11,22,37,209,17,31,34,065,35,14,21,118,21,09,15,304,22*76
$GPGSV,3,3,11,29,13,047,43,06,03,315,21,41,,,*70
$GPRMC,184155.000,A,4459.0171,N,09314.6459,W,0.20,346.44,110317,,,A*7C
$GPVTG,346.44,T,,M,0.20,N,0.37,K,A*3A
$PGTOP,11,2*6E
$GPGGA,184156.000,4459.0171,N,09314.6459,W,1,05,2.10,246.4,M,-31.9,M,,*5F
$GPGLL,4459.0171,N,09314.6459,W,184156.000,A,A*4E
$GPGSA,A,3,03,26,29,31,23,,,,,,,,3.45,2.10,2.73*0A
$GPGSV,3,1,11,26,67,096,28,16,58,166,25,23,52,304,35,03,48,236,23*79
$GPGSV,3,2,11,22,36,209,17,31,34,065,35,14,21,118,21,09,15,304,22*77
$GPGSV,3,3,11,29,13,047,43,06,03,315,21,41,,,*70
$GPRMC,184156.000,A,4459.0171,N,09314.6459,W,0.27,336.28,110317,,,A*75
$GPVTG,336.28,T,,M,0.27,N,0.51,K,A*30
$PGTOP,11,2*6E
$GPGGA,184157.000,4459.0172,N,09314.6459,W,1,05,1.83,246.4,M,-31.9,M,,*54
$GPGLL,4459.0172,N,09314.6459,W,184157.000,A,A*4C
$GPGSA,A,3,03,26,29,31,23,,,,,,,,2.06,1.83,0.94*0E
$GPGSV,3,1,11,26,67,096,28,16,58,166,26,23,52,304,35,03,48,236,24*7D
$GPGSV,3,2,11,22,36,209,18,31,34,065,35,14,21,118,21,09,15,304,23*79
$GPGSV,3,3,11,29,13,047,43,06,03,315,22,41,,,*73
$GPRMC,184157.000,A,4459.0172,N,09314.6459,W,0.36,8.29,110317,,,A*78
$GPVTG,8.29,T,,M,0.36,N,0.66,K,A*3B
$PGTOP,11,2*6E
$GPGGA,184158.000,4459.0173,N,09314.6459,W,1,05,2.10,246.4,M,-31.9,M,,*53
$GPGLL,4459.0173,N,09314.6459,W,184158.000,A,A*42
$GPGSA,A,3,03,26,29,31,23,,,,,,,,3.45,2.10,2.73*0A
$GPGSV,3,1,11,26,67,096,28,16,58,166,26,23,52,304,35,03,48,236,24*7D
$GPGSV,3,2,11,22,36,209,18,31,34,065,35,14,21,118,21,09,15,304,23*79
$GPGSV,3,3,11,29,13,047,43,06,03,315,22,43,,,*71
$GPRMC,184158.000,A,4459.0173,N,09314.6459,W,0.15,347.94,110317,,,A*79
$GPVTG,347.94,T,,M,0.15,N,0.27,K,A*31
$PGTOP,11,2*6E
$GPGGA,184159.000,4459.0173,N,09314.6459,W,1,05,2.10,246.4,M,-31.9,M,,*52
$GPGLL,4459.0173,N,09314.6459,W,184159.000,A,A*43
$GPGSA,A,3,03,26,29,31,23,,,,,,,,3.45,2.10,2.73*0A
$GPGSV,3,1,11,26,67,096,29,16,58,166,26,23,52,304,35,03,48,236,24*7C
$GPGSV,3,2,11,22,36,209,18,31,34,065,35,14,21,118,21,09,15,304,23*79
$GPGSV,3,3,11,29,13,047,43,06,03,315,22,43,,,*71
$GPRMC,184159.000,A,4459.0173,N,09314.6459,W,0.05,297.43,110317,,,A*7F
$GPVTG,297.43,T,,M,0.05,N,0.10,K,A*32
$PGTOP,11,2*6E
$GPGGA,184200.000,4459.0173,N,09314.6459,W,1,05,1.83,246.4,M,-31.9,M,,*54
$GPGLL,4459.0173,N,09314.6459,W,184200.000,A,A*4C
$GPGSA,A,3,03,26,29,31,23,,,,,,,,2.06,1.83,0.94*0E
$GPGSV,3,1,11,26,67,095,28,16,58,166,26,23,52,304,35,03,48,236,24*7E
$GPGSV,3,2,11,22,36,209,18,31,34,065,35,14,21,118,21,09,15,304,23*79
$GPGSV,3,3,11,29,13,047,43,06,03,315,22,43,,,*71
$GPRMC,184200.000,A,4459.0173,N,09314.6459,W,0.10,13.18,110317,,,A*44
$GPVTG,13.18,T,,M,0.10,N,0.18,K,A*0E
$PGTOP,11,2*6E
$GPGGA,184201.000,4459.0174,N,09314.6459,W,1,05,2.10,246.4,M,-31.9,M,,*5B
$GPGLL,4459.0174,N,09314.6459,W,184201.000,A,A*4A
$GPGSA,A,3,03,26,29,31,23,,,,,,,,3.45,2.10,2.73*0A
$GPGSV,3,1,11,26,67,095,28,16,58,166,26,23,52,304,35,03,48,236,24*7E
$GPGSV,3,2,11,22,36,209,18,31,34,065,36,14,21,118,21,09,15,304,23*7A
$GPGSV,3,3,11,29,13,047,43,06,03,315,22,43,,,*71
$GPRMC,184201.000,A,4459.0174,N,09314.6459,W,0.15,14.11,110317,,,A*49
$GPVTG,14.11,T,,M,0.15,N,0.28,K,A*06
$PGTOP,11,2*6E
$GPGGA,184202.000,4459.0174,N,09314.6459,W,1,05,2.10,246.4,M,-31.9,M,,*58
$GPGLL,4459.0174,N,09314.6459,W,184202.000,A,A*49
$GPGSA,A,3,03,26,29,31,23,,,,,,,,3.44,2.10,2.73*0B
$GPGSV,3,1,11,26,67,095,28,16,58,166,26,23,52,304,35,03,48,236,24*7E
$GPGSV,3,2,11,22,36,209,18,31,34,065,36,14,21,118,21,09,15,304,23*7A
$GPGSV,3,3,11,29,13,047,43,06,03,315,22,43,,,*71
$GPRMC,184202.000,A,4459.0174,N,09314.6459,W,0.25,317.13,110317,,,A*7B
$GPVTG,317.13,T,,M,0.25,N,0.47,K,A*3E
$PGTOP,11,2*6E
$GPGGA,184203.000,4459.0175,N,09314.6460,W,1,05,1.83,246.4,M,-31.9,M,,*5B
$GPGLL,4459.0175,N,09314.6460,W,184203.000,A,A*43
$GPGSA,A,3,03,26,29,31,23,,,,,,,,2.06,1.83,0.94*0E
$GPGSV,3,1,11,26,67,095,28,16,58,166,26,23,52,304,35,03,48,236,24*7E
$GPGSV,3,2,11,22,36,209,18,31,34,065,36,14,21,118,21,09,15,304,23*7A
$GPGSV,3,3,11,29,13,046,43,06,03,315,22,43,,,*70
$GPRMC,184203.000,A,4459.0175,N,09314.6460,W,0.10,269.43,110317,,,A*7A
$GPVTG,269.43,T,,M,0.10,N,0.18,K,A*3F
$PGTOP,11,2*6E
$GPGGA,184204.000,4459.0175,N,09314.6460,W,1,05,1.83,246.4,M,-31.9,M,,*5C
$GPGLL,4459.0175,N,09314.6460,W,184204.000,A,A*44
$GPGSA,A,3,03,26,29,31,23,,,,,,,,2.06,1.83,0.94*0E
$GPGSV,3,1,11,26,67,095,29,16,58,166,26,23,52,304,35,03,48,236,24*7F
$GPGSV,3,2,11,22,36,209,18,31,34,065,36,14,21,118,21,09,15,304,23*7A
$GPGSV,3,3,11,29,13,046,43,06,03,315,22,43,,,*70
$GPRMC,184204.000,A,4459.0175,N,09314.6460,W,0.07,12.01,110317,,,A*43
$GPVTG,12.01,T,,M,0.07,N,0.14,K,A*0D
$PGTOP,11,2*6E
$GPGGA,184205.000,4459.0175,N,09314.6460,W,1,05,2.10,246.4,M,-31.9,M,,*54
$GPGLL,4459.0175,N,09314.6460,W,184205.000,A,A*45
$GPGSA,A,3,03,26,29,31,23,,,,,,,,3.44,2.10,2.73*0B
$GPGSV,3,1,11,26,67,095,29,16,58,166,26,23,52,304,35,03,48,236,23*78
$GPGSV,3,2,11,22,36,209,17,31,34,065,36,14,21,118,21,09,15,304,23*75
$GPGSV,3,3,11,29,13,046,42,06,03,315,22,45,,,*77
$GPRMC,184205.000,A,4459.0175,N,09314.6460,W,0.01,12.14,110317,,,A*40
$GPVTG,12.14,T,,M,0.01,N,0.01,K,A*0B
$PGTOP,11,2*6E
$GPGGA,184206.000,4459.0175,N,09314.6460,W,1,05,2.10,246.4,M,-31.9,M,,*57
$GPGLL,4459.0175,N,09314.6460,W,184206.000,A,A*46
$GPGSA,A,3,03,26,29,31,23,,,,,,,,3.44,2.10,2.73*0B
$GPGSV,3,1,11,26,67,095,29,16,58,166,26,23,52,304,35,03,48,236,23*78
$GPGSV,3,2,11,22,36,209,17,31,34,065,36,14,21,118,21,09,15,304,23*75
$GPGSV,3,3,11,29,13,046,42,06,03,315,22,45,,,*77
$GPRMC,184206.000,A,4459.0175,N,09314.6460,W,0.08,126.30,110317,,,A*7A
$GPVTG,126.30,T,,M,0.08,N,0.15,K,A*37
$PGTOP,11,2*6E
$GPGGA,184207.000,4459.0175,N,09314.6460,W,1,05,1.83,246.4,M,-31.9,M,,*5F
$GPGLL,4459.0175,N,09314.6460,W,184207.000,A,A*47
$GPGSA,A,3,03,26,29,31,23,,,,,,,,2.06,1.83,0.94*0E
$GPGSV,3,1,11,26,67,095,30,16,58,166,26,23,52,304,35,03,48,236,23*70
$GPGSV,3,2,11,22,36,209,16,31,34,065,36,14,21,118,21,09,15,304,23*74
$GPGSV,3,3,11,29,13,046,42,06,03,315,22,45,,,*77
$GPRMC,184207.000,A,4459.0175,N,09314.6460,W,0.37,169.26,110317,,,A*7B
$GPVTG,169.26,T,,M,0.37,N,0.69,K,A*3C
$PGTOP,11,2*6E
$GPGGA,184208.000,4459.0174,N,09314.6459,W,1,05,1.83,246.4,M,-31.9,M,,*5B
$GPGLL,4459.0174,N,09314.6459,W,184208.000,A,A*43
$GPGSA,A,3,03,26,29,31,23,,,,,,,,2.06,1.83,0.94*0E
$GPGSV,3,1,11,26,67,095,30,16,58,166,25,23,52,304,34,03,48,236,24*75
$GPGSV,3,2,11,22,36,209,15,31,34,065,35,14,21,118,21,09,15,304,22*75
$GPGSV,3,3,11,29,13,046,42,06,03,315,22,45,,,*77
$GPRMC,184208.000,A,4459.0174,N,09314.6459,W,0.27,171.65,110317,,,A*70
$GPVTG,171.65,T,,M,0.27,N,0.50,K,A*39
$PGTOP,11,2*6E
$GPGGA,184209.000,4459.0173,N,09314.6459,W,1,05,1.83,246.4,M,-31.9,M,,*5D
$GPGLL,4459.0173,N,09314.6459,W,184209.000,A,A*45
$GPGSA,A,3,03,26,29,31,23,,,,,,,,2.06,1.83,0.94*0E
$GPGSV,3,1,11,26,67,095,30,16,58,166,24,23,52,304,34,03,48,236,24*74
$GPGSV,3,2,11,22,36,209,15,31,34,065,35,14,21,118,21,09,15,304,21*76
$GPGSV,3,3,11,29,13,046,42,06,03,315,22,45,,,*77
$GPRMC,184209.000,A,4459.0173,N,09314.6459,W,0.16,179.03,110317,,,A*7C
$GPVTG,179.03,T,,M,0.16,N,0.29,K,A*3D
$PGTOP,11,2*6E
$GPGGA,184210.000,4459.0172,N,09314.6459,W,1,05,1.83,246.5,M,-31.9,M,,*55
$GPGLL,4459.0172,N,09314.6459,W,184210.000,A,A*4C
$GPGSA,A,3,03,26,29,31,23,,,,,,,,2.06,1.83,0.94*0E
$GPGSV,3,1,11,26,67,095,29,16,58,166,24,23,52,304,33,03,48,236,24*7B
$GPGSV,3,2,11,22,36,209,15,31,34,065,35,14,21,118,20,09,15,304,20*76
$GPGSV,3,3,11,29,13,046,41,06,03,315,22,45,,,*74
$GPRMC,184210.000,A,4459.0172,N,09314.6459,W,0.06,120.39,110317,,,A*71
$GPVTG,120.39,T,,M,0.06,N,0.10,K,A*33
$PGTOP,11,2*6E
$GPGGA,184211.000,4459.0172,N,09314.6459,W,1,05,1.83,246.5,M,-31.9,M,,*54
$GPGLL,4459.0172,N,09314.6459,W,184211.000,A,A*4D
$GPGSA,A,3,03,26,29,31,23,,,,,,,,2.06,1.83,0.94*0E
$GPGSV,3,1,11,26,67,095,29,16,58,166,24,23,52,304,33,03,48,236,23*7C
$GPGSV,3,2,11,22,36,209,15,31,34,065,35,14,21,118,20,09,15,304,20*76
$GPGSV,3,3,11,29,13,046,40,06,03,315,22,46,,,*76
$GPRMC,184211.000,A,4459.0172,N,09314.6459,W,0.09,151.70,110317,,,A*74
$GPVTG,151.70,T,,M,0.09,N,0.16,K,A*31
$PGTOP,11,2*6E
$GPGGA,184212.000,4459.0172,N,09314.6459,W,1,05,1.83,246.5,M,-31.9,M,,*57
$GPGLL,4459.0172,N,09314.6459,W,184212.000,A,A*4E
$GPGSA,A,3,03,26,29,31,23,,,,,,,,2.06,1.83,0.94*0E
$GPGSV,3,1,11,26,67,095,29,16,58,166,24,23,52,304,33,03,48,235,23*7F
$GPGSV,3,2,11,22,36,209,15,31,34,065,36,14,21,118,19,09,15,304,20*7F
$GPGSV,3,3,11,29,13,046,40,06,03,315,22,46,,,*76
$GPRMC,184212.000,A,4459.0172,N,09314.6459,W,0.16,198.74,110317,,,A*78
$GPVTG,198.74,T,,M,0.16,N,0.30,K,A*3A
$PGTOP,11,2*6E
$GPGGA,184213.000,4459.0172,N,09314.6459,W,1,05,1.83,246.5,M,-31.9,M,,*56
$GPGLL,4459.0172,N,09314.6459,W,184213.000,A,A*4F
$GPGSA,A,3,03,26,29,31,23,,,,,,,,2.06,1.83,0.94*0E
$GPGSV,3,1,11,26,67,095,28,16,58,166,24,23,52,304,33,03,48,235,23*7E
$GPGSV,3,2,11,22,36,209,15,31,34,065,36,14,21,118,19,09,15,304,20*7F
$GPGSV,3,3,11,29,13,046,40,06,03,315,22,46,,,*76
$GPRMC,184213.000,A,4459.0172,N,09314.6459,W,0.07,344.28,110317,,,A*73
$GPVTG,344.28,T,,M,0.07,N,0.13,K,A*31
$PGTOP,11,2*6E
$GPGGA,184214.000,4459.0172,N,09314.6459,W,1,05,1.83,246.5,M,-31.9,M,,*51
$GPGLL,4459.0172,N,09314.6459,W,184214.000,A,A*48
$GPGSA,A,3,03,26,29,31,23,,,,,,,,2.06,1.83,0.94*0E
$GPGSV,3,1,11,26,67,095,28,16,58,166,24,23,52,304,33,03,48,235,22*7F
