0642.000,AhÕr‚ŠŠ¦¦M›˜,Wƒrb”)	sL–,A*Õ):eEÝEL—š,TX±rn“S¥)P™7	Š
&
$PGACK,33,1*6F
$PGTOP,11,2*6E
$GPGGA,210643.000,4459.0212,N,09314.6314,W,1,06,1.36,282.9,M,-31.9,M,,*5B
$GPGLL,4459.0212,N,09314.6314,W,210643.000,A,A*4B
$GPGSA,A,3,26,07,16,09,27,23,,,,,,,1.66,1.36,0.95*02
$GPGSV,3,1,11,09,65,259,23,23,51,180,26,27,50,102,22,07,49,298,27*79
$GPGSV,3,2,11,16,41,051,39,08,39,156,,51,36,199,,26,14,057,41*72
$GPGSV,3,3,11,30,12,286,23,05,04,330,19,21,03,044,*4D
$GPRMC,210643.000,A,4459.0212,N,09314.6314,W,0.20,309.18,110317,,,A*78
$GPVTG,309.18,T,,M,0.20,N,0.38,K,A*37
$PGTOP,11,2*6E
$GPGGA,210644.000,4459.0213,N,09314.6315,W,1,06,1.36,282.9,M,-31.9,M,,*5C
$GPGLL,4459.0213,N,09314.6315,W,210644.000,A,A*4C
$GPGSA,A,3,26,07,16,09,27,23,,,,,,,1.66,1.36,0.95*02
$GPGSV,3,1,11,09,65,259,23,23,51,180,25,27,50,102,22,07,49,298,26*7B
$GPGSV,3,2,11,16,41,051,38,08,39,156,,48,25,229,,26,14,057,40*70
$GPGSV,3,3,11,30,12,286,23,05,04,330,19,21,03,044,*4D
$GPRMC,210644.000,A,4459.0213,N,09314.6315,W,0.28,335.61,110317,,,A*76
$GPVTG,335.61,T,,M,0.28,N,0.51,K,A*31
$PGTOP,11,2*6E
$GPGGA,210645.000,4459.0214,N,09314.6315,W,1,06,1.36,282.9,M,-31.9,M,,*5A
$GPGLL,4459.0214,N,09314.6315,W,210645.000,A,A*4A
$GPGSA,A,3,26,07,16,09,27,23,,,,,,,1.66,1.36,0.95*02
$GPGSV,3,1,11,09,65,259,24,23,51,180,25,27,50,102,22,07,49,298,26*7C
$GPGSV,3,2,11,16,41,051,38,08,39,156,,48,25,229,,26,14,057,40*70
$GPGSV,3,3,11,30,12,286,23,05,04,330,19,21,03,044,*4D
$GPRMC,210645.000,A,4459.0214,N,09314.6315,W,0.28,321.92,110317,,,A*79
$GPVTG,321.92,T,,M,0.28,N,0.53,K,A*3A
$PGTOP,11,2*6E
$GPGGA,210646.000,4459.0214,N,09314.6316,W,1,06,1.36,282.9,M,-31.9,M,,*5A
$GPGLL,4459.0214,N,09314.6316,W,210646.000,A,A*4A
$GPGSA,A,3,26,07,16,09,27,23,,,,,,,1.66,1.36,0.95*02
$GPGSV,3,1,11,09,65,259,24,23,51,180,25,27,50,102,22,07,49,298,27*7D
$GPGSV,3,2,11,16,41,051,38,08,39,156,,48,25,229,,26,14,057,40*70
$GPGSV,3,3,11,30,12,286,23,05,04,330,19,21,03,044,*4D
$GPRMC,210646.000,A,4459.0214,N,09314.6316,W,0.29,313.66,110317,,,A*72
$GPVTG,313.66,T,,M,0.29,N,0.54,K,A*36
$PGTOP,11,2*6E
$GPGGA,210647.000,4459.0215,N,09314.6317,W,1,06,1.36,282.9,M,-31.9,M,,*5B
$GPGLL,4459.0215,N,09314.6317,W,210647.000,A,A*4B
$GPGSA,A,3,26,07,16,09,27,23,,,,,,,1.66,1.36,0.95*02
$GPGSV,3,1,11,09,65,259,24,23,51,180,25,27,50,102,21,07,49,298,27*7E
$GPGSV,3,2,11,16,41,051,38,08,39,156,,48,25,229,,26,14,057,40*70
$GPGSV,3,3,11,30,12,286,23,05,04,330,19,21,03,044,*4D
$GPRMC,210647.000,A,4459.0215,N,09314.6317,W,0.20,279.91,110317,,,A*7F
$GPVTG,279.91,T,,M,0.20,N,0.38,K,A*30
$PGTOP,11,2*6E
$GPGGA,210648.000,4459.0215,N,09314.6317,W,1,06,1.36,282.9,M,-31.9,M,,*54
$GPGLL,4459.0215,N,09314.6317,W,210648.000,A,A*44
$GPGSA,A,3,26,07,16,09,27,23,,,,,,,1.66,1.36,0.95*02
$GPGSV,3,1,11,09,65,259,25,23,51,180,25,27,50,102,21,07,49,298,27*7F
$GPGSV,3,2,11,16,41,051,38,08,39,156,,48,25,229,,26,14,057,40*70
$GPGSV,3,3,11,30,12,286,23,05,04,330,18,21,03,044,*4C
$GPRMC,210648.000,A,4459.0215,N,09314.6317,W,0.15,245.01,110317,,,A*70
$GPVTG,245.01,T,,M,0.15,N,0.29,K,A*30
$PGTOP,11,2*6E
$GPGGA,210649.000,4459.0215,N,09314.6318,W,1,06,1.36,282.9,M,-31.9,M,,*5A
$GPGLL,4459.0215,N,09314.6318,W,210649.000,A,A*4A
$GPGSA,A,3,26,07,16,09,27,23,,,,,,,1.66,1.36,0.95*02
$GPGSV,3,1,11,09,65,259,25,23,51,180,25,27,50,102,21,07,49,298,28*70
$GPGSV,3,2,11,16,41,051,39,08,39,156,,48,25,229,,26,14,057,40*71
$GPGSV,3,3,11,30,12,286,22,05,04,330,18,21,03,044,*4D
$GPRMC,210649.000,A,4459.0215,N,09314.6318,W,0.14,196.76,110317,,,A*72
$GPVTG,196.76,T,,M,0.14,N,0.26,K,A*33
$PGTOP,11,2*6E
$GPGGA,210650.000,4459.0214,N,09314.6318,W,1,06,1.36,282.9,M,-31.9,M,,*53
$GPGLL,4459.0214,N,09314.6318,W,210650.000,A,A*43
$GPGSA,A,3,26,07,16,09,27,23,,,,,,,1.66,1.36,0.95*02
$GPGSV,3,1,11,09,65,259,25,23,51,180,25,27,50,102,21,07,49,298,29*71
$GPGSV,3,2,11,16,41,051,39,08,39,156,,48,25,229,,26,14,057,40*71
$GPGSV,3,3,11,30,12,286,21,05,04,330,17,21,03,044,*41
$GPRMC,210650.000,A,4459.0214,N,09314.6318,W,0.15,248.26,110317,,,A*7F
$GPVTG,248.26,T,,M,0.15,N,0.28,K,A*39
$PGTOP,11,2*6E
$GPGGA,210651.000,4459.0214,N,09314.6319,W,1,06,1.36,282.9,M,-31.9,M,,*53
$GPGLL,4459.0214,N,09314.6319,W,210651.000,A,A*43
$GPGSA,A,3,26,07,16,09,27,23,,,,,,,1.66,1.36,0.95*02
$GPGSV,3,1,11,09,65,259,25,23,51,180,25,27,50,102,21,07,49,298,28*70
$GPGSV,3,2,11,16,41,051,39,08,39,156,,48,25,229,,26,14,057,40*71
$GPGSV,3,3,11,30,12,286,20,05,04,330,17,21,03,044,*40
$GPRMC,210651.000,A,4459.0214,N,09314.6319,W,0.27,221.76,110317,,,A*74
$GPVTG,221.76,T,,M,0.27,N,0.50,K,A*3D
$PGTOP,11,2*6E
$GPGGA,210652.000,4459.0214,N,09314.6319,W,1,06,1.36,282.9,M,-31.9,M,,*50
$GPGLL,4459.0214,N,09314.6319,W,210652.000,A,A*40
$GPGSA,A,3,26,07,16,09,27,23,,,,,,,1.66,1.36,0.95*02
$GPGSV,3,1,11,09,65,259,24,23,51,180,25,27,50,102,20,07,49,298,28*70
$GPGSV,3,2,11,16,41,051,39,08,39,156,,48,25,229,,26,14,057,40*71
$GPGSV,3,3,11,30,12,286,20,05,04,330,17,21,03,044,*40
$GPRMC,210652.000,A,4459.0214,N,09314.6319,W,0.22,202.01,110317,,,A*73
$GPVTG,202.01,T,,M,0.22,N,0.42,K,A*3A
$PGTOP,11,2*6E
$GPGGA,210653.000,4459.0213,N,09314.6320,W,1,05,1.50,282.9,M,-31.9,M,,*5F
$GPGLL,4459.0213,N,09314.6320,W,210653.000,A,A*4C
$GPGSA,A,3,26,07,16,09,23,,,,,,,,1.78,1.50,0.97*0A
$GPGSV,3,1,11,09,65,259,24,23,51,180,25,27,50,102,19,07,49,298,28*7A
$GPGSV,3,2,11,16,41,051,39,08,39,156,,48,25,229,,26,14,057,40*71
$GPGSV,3,3,11,30,12,286,20,05,04,330,17,21,03,044,*40
$GPRMC,210653.000,A,4459.0213,N,09314.6320,W,0.19,169.42,110317,,,A*7E
$GPVTG,169.42,T,,M,0.19,N,0.36,K,A*38
$PGTOP,11,2*6E
$GPGGA,210654.000,4459.0213,N,09314.6319,W,1,06,1.36,282.9,M,-31.9,M,,*51
$GPGLL,4459.0213,N,09314.6319,W,210654.000,A,A*41
$GPGSA,A,3,26,07,16,09,27,23,,,,,,,1.66,1.36,0.95*02
$GPGSV,3,1,11,09,65,259,22,23,51,180,25,27,50,102,19,07,49,298,28*7C
$GPGSV,3,2,11,16,41,051,39,08,39,156,,26,14,057,40,30,12,286,19*77
$GPGSV,3,3,11,05,04,330,17,21,03,044,,34,,,*79
$GPRMC,210654.000,A,4459.0213,N,09314.6319,W,0.26,145.26,110317,,,A*73
$GPVTG,145.26,T,,M,0.26,N,0.48,K,A*31
$PGTOP,11,2*6E
$GPGGA,210655.000,4459.0212,N,09314.6319,W,1,05,1.50,282.8,M,-31.9,M,,*53
$GPGLL,4459.0212,N,09314.6319,W,210655.000,A,A*41
$GPGSA,A,3,26,07,16,09,23,,,,,,,,1.78,1.50,0.97*0A
$GPGSV,3,1,11,09,65,259,22,23,51,180,25,27,50,102,17,07,49,298,28*72
$GPGSV,3,2,11,16,41,051,39,08,39,156,,26,14,057,40,30,12,286,18*76
$GPGSV,3,3,11,05,04,330,17,21,03,044,,34,,,*79
$GPRMC,210655.000,A,4459.0212,N,09314.6319,W,0.13,133.94,110317,,,A*7D
$GPVTG,133.94,T,,M,0.13,N,0.25,K,A*34
$PGTOP,11,2*6E
$GPGGA,210656.000,4459.0212,N,09314.6319,W,1,06,1.36,282.8,M,-31.9,M,,*53
$GPGLL,4459.0212,N,09314.6319,W,210656.000,A,A*42
$GPGSA,A,3,26,07,16,09,27,23,,,,,,,1.66,1.36,0.95*02
$GPGSV,3,1,11,09,65,259,24,23,51,180,25,27,50,102,20,07,49,298,28*70
$GPGSV,3,2,11,16,41,051,39,08,39,156,,26,14,057,40,30,12,286,18*76
$GPGSV,3,3,11,05,04,330,16,21,03,044,,34,,,*78
$GPRMC,210656.000,A,4459.0212,N,09314.6319,W,0.09,82.22,110317,,,A*43
$GPVTG,82.22,T,,M,0.09,N,0.16,K,A*09
$PGTOP,11,2*6E
$GPGGA,210657.000,4459.0212,N,09314.6318,W,1,05,1.50,282.8,M,-31.9,M,,*50
$GPGLL,4459.0212,N,09314.6318,W,210657.000,A,A*42
$GPGSA,A,3,26,07,16,09,23,,,,,,,,1.78,1.50,0.97*0A
$GPGSV,3,1,11,09,65,259,26,23,51,180,25,27,50,101,20,07,49,298,29*70
$GPGSV,3,2,11,16,41,051,40,08,39,156,,26,14,057,41,30,12,286,20*72
$GPGSV,3,3,11,05,04,330,16,21,03,044,,34,,,*78
$GPRMC,210657.000,A,4459.0212,N,09314.6318,W,0.30,318.91,110317,,,A*71
$GPVTG,318.91,T,,M,0.30,N,0.56,K,A*3F
$PGTOP,11,2*6E
$GPGGA,210658.000,4459.0213,N,09314.6319,W,1,06,1.36,282.8,M,-31.9,M,,*5C
$GPGLL,4459.0213,N,09314.6319,W,210658.000,A,A*4D
$GPGSA,A,3,26,07,16,09,27,23,,,,,,,1.66,1.36,0.95*02
$GPGSV,3,1,11,09,65,259,27,23,51,180,28,27,50,101,21,07,49,298,29*7D
$GPGSV,3,2,11,16,41,051,40,08,39,156,,26,14,057,41,30,12,286,22*70
$GPGSV,3,3,11,05,04,330,16,21,03,044,,34,,,*78
$GPRMC,210658.000,A,4459.0213,N,09314.6319,W,0.35,310.06,110317,,,A*7D
$GPVTG,310.06,T,,M,0.35,N,0.66,K,A*3F
$PGTOP,11,2*6E
$GPGGA,210659.000,4459.0213,N,09314.6321,W,1,06,1.36,282.8,M,-31.9,M,,*56
$GPGLL,4459.0213,N,09314.6321,W,210659.000,A,A*47
$GPGSA,A,3,26,07,16,09,27,23,,,,,,,1.66,1.36,0.95*02
$GPGSV,3,1,11,09,65,259,27,23,51,180,27,27,50,101,22,07,49,298,30*79
$GPGSV,3,2,11,16,41,051,40,08,39,156,,26,14,057,41,30,12,286,23*71
$GPGSV,3,3,11,05,04,330,16,21,03,044,,34,,,*78
$GPRMC,210659.000,A,4459.0213,N,09314.6321,W,0.32,316.81,110317,,,A*79
$GPVTG,316.81,T,,M,0.32,N,0.58,K,A*3C
$PGTOP,11,2*6E
$GPGGA,210700.000,4459.0214,N,09314.6322,W,1,06,1.36,282.8,M,-31.9,M,,*5F
$GPGLL,4459.0214,N,09314.6322,W,210700.000,A,A*4E
$GPGSA,A,3,26,07,16,09,27,23,,,,,,,1.66,1.36,0.95*02
$GPGSV,3,1,11,09,65,259,26,23,51,180,27,27,50,101,22,07,49,298,31*79
$GPGSV,3,2,11,16,41,051,40,08,39,156,,26,14,057,41,30,12,287,23*70
$GPGSV,3,3,11,05,04,330,16,21,03,044,,35,,,*79
$GPRMC,210700.000,A,4459.0214,N,09314.6322,W,0.47,318.71,110317,,,A*73
$GPVTG,318.71,T,,M,0.47,N,0.87,K,A*3D
$PGTOP,11,2*6E
$GPGGA,210701.000,4459.0215,N,09314.6323,W,1,06,1.36,282.8,M,-31.9,M,,*5E
$GPGLL,4459.0215,N,09314.6323,W,210701.000,A,A*4F
$GPGSA,A,3,26,07,16,09,27,23,,,,,,,1.66,1.36,0.95*02
$GPGSV,3,1,11,09,65,259,27,23,51,180,28,27,50,101,22,07,49,298,31*77
$GPGSV,3,2,11,16,41,051,40,08,39,156,,26,14,057,41,30,12,287,23*70
$GPGSV,3,3,11,05,04,330,16,21,03,044,,35,,,*79
$GPRMC,210701.000,A,4459.0215,N,09314.6323,W,0.36,301.50,110317,,,A*7F
$GPVTG,301.50,T,,M,0.36,N,0.67,K,A*3E
$PGTOP,11,2*6E
$GPGGA,210702.000,4459.0216,N,09314.6324,W,1,06,1.36,282.8,M,-31.9,M,,*59
$GPGLL,4459.0216,N,09314.6324,W,210702.000,A,A*48
$GPGSA,A,3,26,07,16,09,27,23,,,,,,,1.66,1.36,0.95*02
$GPGSV,3,1,11,09,65,259,27,23,51,180,29,27,50,101,22,07,49,298,31*76
$GPGSV,3,2,11,16,41,051,40,08,39,156,,26,14,057,40,30,12,287,23*71
$GPGSV,3,3,11,05,04,330,16,21,03,044,,35,,,*79
$GPRMC,210702.000,A,4459.0216,N,09314.6324,W,0.30,261.62,110317,,,A*78
$GPVTG,261.62,T,,M,0.30,N,0.56,K,A*3C
$PGTOP,11,2*6E
$GPGGA,210703.000,4459.0215,N,09314.6326,W,1,06,1.36,282.8,M,-31.9,M,,*59
$GPGLL,4459.0215,N,09314.6326,W,210703.000,A,A*48
$GPGSA,A,3,26,07,16,09,27,23,,,,,,,1.66,1.36,0.95*02
$GPGSV,3,1,11,09,65,259,27,23,51,180,29,27,50,101,23,07,49,298,31*77
$GPGSV,3,2,11,16,41,051,40,08,39,156,,26,14,057,40,30,12,287,23*71
$GPGSV,3,3,11,05,04,330,16,21,03,044,,35,,,*79
$GPRMC,210703.000,A,4459.0215,N,09314.6326,W,0.13,204.18,110317,,,A*77
$GPVTG,204.18,T,,M,0.13,N,0.23,K,A*31
$PGTOP,11,2*6E
$GPGGA,210704.000,4459.0215,N,09314.6326,W,1,06,1.36,282.8,M,-31.9,M,,*5E
$GPGLL,4459.0215,N,09314.6326,W,210704.000,A,A*4F
$GPGSA,A,3,26,07,16,09,27,23,,,,,,,1.66,1.36,0.95*02
$GPGSV,3,1,11,09,65,259,27,23,51,180,29,27,50,101,23,07,49,298,32*74
$GPGSV,3,2,11,16,41,051,40,08,39,156,,26,14,057,40,30,12,287,24*76
$GPGSV,3,3,11,05,04,330,16,21,03,044,,35,,,*79
$GPRMC,210704.000,A,4459.0215,N,09314.6326,W,0.15,244.23,110317,,,A*7A
$GPVTG,244.23,T,,M,0.15,N,0.27,K,A*3F
$PGTOP,11,2*6E
$GPGGA,210705.000,4459.0215,N,09314.6327,W,1,06,1.36,282.7,M,-31.9,M,,*51
$GPGLL,4459.0215,N,09314.6327,W,210705.000,A,A*4F
$GPGSA,A,3,26,07,16,09,27,23,,,,,,,1.66,1.36,0.95*02
$GPGSV,3,1,11,09,65,259,27,23,51,180,29,27,50,101,23,07,49,298,32*74
$GPGSV,3,2,11,16,41,051,40,08,39,156,,26,14,057,40,30,12,287,24*76
$GPGSV,3,3,11,05,04,330,16,21,03,044,,35,,,*79
$GPRMC,210705.000,A,4459.0215,N,09314.6327,W,0.14,219.45,110317,,,A*73
$GPVTG,219.45,T,,M,0.14,N,0.26,K,A*37
$PGTOP,11,2*6E
$GPGGA,210706.000,4459.0215,N,09314.6327,W,1,06,1.36,282.7,M,-31.9,M,,*52
$GPGLL,4459.0215,N,09314.6327,W,210706.000,A,A*4C
$GPGSA,A,3,26,07,16,09,27,23,,,,,,,1.66,1.36,0.95*02
$GPGSV,3,1,11,09,65,259,27,23,51,180,30,27,50,101,24,07,49,298,31*78
$GPGSV,3,2,11,16,41,051,40,08,39,156,,26,14,057,40,30,12,287,24*76
$GPGSV,3,3,11,05,04,330,16,21,03,044,,35,,,*79
$GPRMC,210706.000,A,4459.0215,N,09314.6327,W,0.25,207.49,110317,,,A*71
$GPVTG,207.49,T,,M,0.25,N,0.46,K,A*30
$PGTOP,11,2*6E
$GPGGA,210707.000,4459.0214,N,09314.6328,W,1,06,1.36,282.7,M,-31.9,M,,*5D
$GPGLL,4459.0214,N,09314.6328,W,210707.000,A,A*43
$GPGSA,A,3,26,07,16,09,27,23,,,,,,,1.66,1.36,0.95*02
$GPGSV,3,1,11,09,65,259,26,23,51,180,30,27,50,101,24,07,49,298,31*79
$GPGSV,3,2,11,16,41,051,40,08,39,156,,26,14,057,40,30,12,287,24*76
$GPGSV,3,3,11,05,04,330,17,21,03,044,,36,,,*7B
$GPRMC,210707.000,A,4459.0214,N,09314.6328,W,0.30,210.14,110317,,,A*74
$GPVTG,210.14,T,,M,0.30,N,0.56,K,A*3B
$PGTOP,11,2*6E
$GPGGA,210708.000,4459.0213,N,09314.6328,W,1,06,1.36,282.7,M,-31.9,M,,*55
$GPGLL,4459.0213,N,09314.6328,W,210708.000,A,A*4B
$GPGSA,A,3,26,07,16,09,27,23,,,,,,,1.66,1.36,0.95*02
$GPGSV,3,1,11,09,65,259,25,23,51,180,30,27,50,101,24,07,49,298,31*7A
$GPGSV,3,2,11,16,41,051,39,08,39,156,,26,14,057,40,30,12,287,24*78
$GPGSV,3,3,11,05,04,330,17,21,03,044,,36,,,*7B
$GPRMC,210708.000,A,4459.0213,N,09314.6328,W,0.53,206.17,110317,,,A*7D
$GPVTG,206.17,T,,M,0.53,N,0.99,K,A*39
$PGTOP,11,2*6E
$GPGGA,210709.000,4459.0212,N,09314.6329,W,1,06,1.36,282.7,M,-31.9,M,,*54
$GPGLL,4459.0212,N,09314.6329,W,210709.000,A,A*4A
$GPGSA,A,3,26,07,16,09,27,23,,,,,,,1.66,1.36,0.95*02
$GPGSV,3,1,11,09,65,259,25,23,51,180,31,27,50,101,24,07,49,298,31*7B
$GPGSV,3,2,11,16,41,051,39,08,39,156,,26,14,057,40,30,12,287,23*7F
$GPGSV,3,3,11,05,04,330,17,21,03,044,15,36,,,*7F
$GPRMC,210709.000,A,4459.0212,N,09314.6329,W,0.43,203.30,110317,,,A*7D
$GPVTG,203.30,T,,M,0.43,N,0.80,K,A*30
$PGTOP,11,2*6E
$GPGGA,210710.000,4459.0211,N,09314.6330,W,1,06,1.36,282.7,M,-31.9,M,,*57
$GPGLL,4459.0211,N,09314.6330,W,210710.000,A,A*49
$GPGSA,A,3,26,07,16,09,27,23,,,,,,,1.66,1.36,0.95*02
$GPGSV,3,1,11,09,65,259,25,23,51,180,31,27,50,101,24,07,49,298,31*7B
$GPGSV,3,2,11,16,41,051,39,08,39,156,,26,14,057,40,30,12,287,23*7F
$GPGSV,3,3,11,05,04,330,17,21,03,044,15,36,,,*7F
$GPRMC,210710.000,A,4459.0211,N,09314.6330,W,0.35,215.70,110317,,,A*7C
$GPVTG,215.70,T,,M,0.35,N,0.65,K,A*39
$PGTOP,11,2*6E
$GPGGA,210711.000,4459.0210,N,09314.6331,W,1,06,1.36,282.7,M,-31.9,M,,*56
$GPGLL,4459.0210,N,09314.6331,W,210711.000,A,A*48
$GPGSA,A,3,26,07,16,09,27,23,,,,,,,1.66,1.36,0.95*02
$GPGSV,3,1,11,09,65,259,24,23,51,180,31,27,50,101,24,07,49,298,30*7B
$GPGSV,3,2,11,16,41,051,38,08,39,156,,26,14,057,40,30,12,287,24*79
$GPGSV,3,3,11,05,04,330,17,21,03,044,16,36,,,*7C
$GPRMC,210711.000,A,4459.0210,N,09314.6331,W,0.35,205.96,110317,,,A*74
$GPVTG,205.96,T,,M,0.35,N,0.65,K,A*30
$PGTOP,11,2*6E
$GPGGA,210712.000,4459.0209,N,09314.6331,W,1,06,1.36,282.7,M,-31.9,M,,*5D
$GPGLL,4459.0209,N,09314.6331,W,210712.000,A,A*43
$GPGSA,A,3,26,07,16,09,27,23,,,,,,,1.66,1.36,0.95*02
$GPGSV,3,1,11,09,65,259,24,23,51,180,31,27,50,101,25,07,49,299,31*7A
$GPGSV,3,2,11,16,41,051,39,08,39,156,17,26,14,057,40,30,12,287,24*7E
$GPGSV,3,3,11,05,04,330,17,21,03,044,16,36,,,*7C
$GPRMC,210712.000,A,4459.0209,N,09314.6331,W,0.21,226.58,110317,,,A*79
$GPVTG,226.58,T,,M,0.21,N,0.39,K,A*3F
$PGTOP,11,2*6E
$GPGGA,210713.000,4459.0209,N,09314.6332,W,1,06,1.36,282.7,M,-31.9,M,,*5F
$GPGLL,4459.0209,N,09314.6332,W,210713.000,A,A*41
$GPGSA,A,3,26,07,16,09,27,23,,,,,,,1.66,1.36,0.95*02
$GPGSV,3,1,11,09,65,259,24,23,51,180,30,27,50,101,25,07,49,299,30*7A
$GPGSV,3,2,11,16,41,051,39,08,39,156,14,26,14,057,40,30,12,287,*7B
$GPGSV,3,3,11,05,04,330,16,21,03,044,16,38,,,*73
$GPRMC,210713.000,A,4459.0209,N,09314.6332,W,0.12,190.31,110317,,,A*7A
$GPVTG,190.31,T,,M,0.12,N,0.22,K,A*34
$PGTOP,11,2*6E
$GPGGA,210714.000,4459.0209,N,09314.6332,W,1,06,1.36,282.7,M,-31.9,M,,*58
$GPGLL,4459.0209,N,09314.6332,W,210714.000,A,A*46
$GPGSA,A,3,26,07,16,09,27,23,,,,,,,1.66,1.36,0.95*02
$GPGSV,3,1,11,09,65,258,22,23,51,180,30,27,50,101,25,07,49,299,30*7D
$GPGSV,3,2,11,16,41,051,39,08,39,156,16,26,14,057,40,30,12,287,26*7D
$GPGSV,3,3,11,05,04,330,16,21,03,044,15,38,,,*70
$GPRMC,210714.000,A,4459.0209,N,09314.6332,W,0.23,170.69,110317,,,A*7C
$GPVTG,170.69,T,,M,0.23,N,0.43,K,A*32
$PGTOP,11,2*6E
$GPGGA,210715.000,4459.0208,N,09314.6332,W,1,06,1.36,282.6,M,-31.9,M,,*59
$GPGLL,4459.0208,N,09314.6332,W,210715.000,A,A*46
$GPGSA,A,3,26,07,16,09,27,23,,,,,,,1.66,1.36,0.95*02
$GPGSV,3,1,11,09,65,258,22,23,51,180,30,27,50,101,25,07,49,299,31*7C
$GPGSV,3,2,11,16,41,051,39,08,39,156,16,26,14,057,40,30,12,287,24*7F
$GPGSV,3,3,11,05,04,330,16,21,03,044,14,38,,,*71
$GPRMC,210715.000,A,4459.0208,N,09314.6332,W,0.23,190.80,110317,,,A*75
$GPVTG,190.80,T,,M,0.23,N,0.42,K,A*3A
$PGTOP,11,2*6E
$GPGGA,210716.000,4459.0207,N,09314.6332,W,1,06,1.36,282.6,M,-31.9,M,,*55
$GPGLL,4459.0207,N,09314.6332,W,210716.000,A,A*4A
$GPGSA,A,3,26,07,16,09,27,23,,,,,,,1.66,1.36,0.95*02
$GPGSV,3,1,11,09,65,258,21,23,51,180,29,27,50,101,25,07,49,299,32*74
$GPGSV,3,2,11,16,41,051,39,08,39,156,13,26,14,057,40,30,12,287,24*7A
$GPGSV,3,3,11,05,04,330,16,21,03,044,14,38,,,*71
$GPRMC,210716.000,A,4459.0207,N,09314.6332,W,0.17,223.01,110317,,,A*7C
$GPVTG,223.01,T,,M,0.17,N,0.32,K,A*38
$PGTOP,11,2*6E
$GPGGA,210717.000,4459.0207,N,09314.6333,W,1,06,1.36,282.6,M,-31.9,M,,*55
$GPGLL,4459.0207,N,09314.6333,W,210717.000,A,A*4A
$GPGSA,A,3,26,07,16,09,27,23,,,,,,,1.66,1.36,0.95*02
$GPGSV,3,1,11,09,65,258,21,23,51,180,29,27,50,101,25,07,49,299,32*74
$GPGSV,3,2,11,16,41,051,39,08,39,156,14,26,14,057,40,30,12,287,26*7F
$GPGSV,3,3,11,05,04,330,16,21,03,044,14,38,,,*71
$GPRMC,210717.000,A,4459.0207,N,09314.6333,W,0.02,244.51,110317,,,A*7C
$GPVTG,244.51,T,,M,0.02,N,0.04,K,A*3D
$PGTOP,11,2*6E
$GPGGA,210718.000,4459.0207,N,09314.6333,W,1,06,1.36,282.6,M,-31.9,M,,*5A
$GPGLL,4459.0207,N,09314.6333,W,210718.000,A,A*45
$GPGSA,A,3,26,07,16,09,27,23,,,,,,,1.66,1.36,0.95*02
$GPGSV,3,1,11,09,65,258,20,23,51,180,29,27,50,101,26,07,49,299,32*76
$GPGSV,3,2,11,16,41,051,39,08,39,156,15,26,14,057,40,30,12,287,24*7C
$GPGSV,3,3,11,05,04,330,16,21,03,044,15,38,,,*70
$GPRMC,210718.000,A,4459.0207,N,09314.6333,W,0.14,273.44,110317,,,A*74
$GPVTG,273.44,T,,M,0.14,N,0.25,K,A*39
$PGTOP,11,2*6E
$GPGGA,210719.000,4459.0207,N,09314.6334,W,1,06,1.36,282.6,M,-31.9,M,,*5C
$GPGLL,4459.0207,N,09314.6334,W,210719.000,A,A*43
$GPGSA,A,3,26,07,16,09,27,23,,,,,,,1.66,1.36,0.95*02
$GPGSV,3,1,11,09,65,258,19,23,51,180,29,27,50,101,26,07,49,299,32*7C
$GPGSV,3,2,11,16,41,051,39,08,39,156,16,26,14,057,40,30,12,287,24*7F
$GPGSV,3,3,11,05,04,330,17,21,03,044,15,41,,,*7F
$GPRMC,210719.000,A,4459.0207,N,09314.6334,W,0.16,231.01,110317,,,A*77
$GPVTG,231.01,T,,M,0.16,N,0.30,K,A*38
$PGTOP,11,2*6E
$GPGGA,210720.000,4459.0207,N,09314.6334,W,1,06,1.36,282.6,M,-31.9,M,,*56
$GPGLL,4459.0207,N,09314.6334,W,210720.000,A,A*49
$GPGSA,A,3,26,07,16,09,27,23,,,,,,,1.66,1.36,0.95*02
$GPGSV,3,1,11,09,65,258,18,23,51,180,29,27,50,101,27,07,49,299,33*7D
$GPGSV,3,2,11,16,41,051,39,08,39,156,17,26,14,057,40,30,12,287,25*7F
$GPGSV,3,3,11,05,04,330,18,21,03,044,15,41,,,*70
$GPRMC,210720.000,A,4459.0207,N,09314.6334,W,0.23,198.58,110317,,,A*77
$GPVTG,198.58,T,,M,0.23,N,0.43,K,A*36
$PGTOP,11,2*6E
$GPGGA,210721.000,4459.0206,N,09314.6335,W,1,06,1.36,282.6,M,-31.9,M,,*57
$GPGLL,4459.0206,N,09314.6335,W,210721.000,A,A*48
$GPGSA,A,3,26,07,16,09,27,23,,,,,,,1.66,1.36,0.95*02
$GPGSV,3,1,11,09,65,258,18,23,51,180,29,27,50,101,27,07,49,299,34*7A
$GPGSV,3,2,11,16,40,051,39,08,39,156,19,26,14,057,40,30,12,287,26*73
$GPGSV,3,3,11,05,04,330,18,21,03,044,15,41,,,*70
$GPRMC,210721.000,A,4459.0206,N,09314.6335,W,0.21,234.71,110317,,,A*7A
$GPVTG,234.71,T,,M,0.21,N,0.39,K,A*37
$PGTOP,11,2*6E
$GPGGA,210722.000,4459.0206,N,09314.6335,W,1,06,1.36,282.6,M,-31.9,M,,*54
$GPGLL,4459.0206,N,09314.6335,W,210722.000,A,A*4B
$GPGSA,A,3,26,07,16,09,27,23,,,,,,,1.66,1.36,0.95*02
$GPGSV,3,1,11,09,65,258,17,23,51,180,29,27,50,101,28,07,49,299,34*7A
$GPGSV,3,2,11,16,40,051,39,08,39,156,19,26,14,057,40,30,12,287,27*72
$GPGSV,3,3,11,05,04,330,19,21,03,044,15,41,,,*71
$GPRMC,210722.000,A,4459.0206,N,09314.6335,W,0.23,260.25,110317,,,A*7B
$GPVTG,260.25,T,,M,0.23,N,0.43,K,A*38
$PGTOP,11,2*6E
$GPGGA,210723.000,4459.0206,N,09314.6336,W,1,06,1.36,282.6,M,-31.9,M,,*56
$GPGLL,4459.0206,N,09314.6336,W,210723.000,A,A*49
$GPGSA,A,3,26,07,16,09,27,23,,,,,,,1.66,1.36,0.95*02
$GPGSV,3,1,11,09,65,258,15,23,51,180,29,27,50,101,28,07,49,299,34*78
$GPGSV,3,2,11,16,40,051,39,08,39,156,,26,14,057,40,30,12,287,27*7A
$GPGSV,3,3,11,05,04,330,19,21,03,044,15,41,,,*71
$GPRMC,210723.000,A,4459.0206,N,09314.6336,W,0.24,327.57,110317,,,A*79
$GPVTG,327.57,T,,M,0.24,N,0.45,K,A*3E
$PGTOP,11,2*6E
$GPGGA,210724.000,4459.0206,N,09314.6337,W,1,06,1.36,282.6,M,-31.9,M,,*50
$GPGLL,4459.0206,N,09314.6337,W,210724.000,A,A*4F
$GPGSA,A,3,26,07,16,09,27,23,,,,,,,1.66,1.36,0.95*02
$GPGSV,3,1,11,09,65,258,14,23,51,180,29,27,50,101,28,07,49,299,34*79
$GPGSV,3,2,11,16,40,051,39,08,39,156,,26,14,057,40,30,12,287,27*7A
$GPGSV,3,3,11,05,04,330,20,21,03,044,15,41,,,*7B
$GPRMC,210724.000,A,4459.0206,N,09314.6337,W,0.16,25.16,110317,,,A*4A
$GPVTG,25.16,T,,M,0.16,N,0.29,K,A*01
$PGTOP,11,2*6E
$GPGGA,210725.000,4459.0207,N,09314.6337,W,1,06,1.36,282.6,M,-31.9,M,,*50
$GPGLL,4459.0207,N,09314.6337,W,210725.000,A,A*4F
$GPGSA,A,3,26,07,16,09,27,23,,,,,,,1.66,1.36,0.95*02
$GPGSV,3,1,11,09,65,258,13,23,51,180,29,27,50,101,28,07,49,299,34*7E
$GPGSV,3,2,11,16,40,051,38,08,39,156,,26,14,057,40,30,12,287,27*7B
$GPGSV,3,3,11,05,04,330,21,21,03,044,15,41,,,*7A
$GPRMC,210725.000,A,4459.0207,N,09314.6337,W,0.18,29.07,110317,,,A*48
$GPVTG,29.07,T,,M,0.18,N,0.33,K,A*08
$PGTOP,11,2*6E
$GPGGA,210726.000,4459.0207,N,09314.6336,W,1,06,1.36,282.6,M,-31.9,M,,*52
$GPGLL,4459.0207,N,09314.6336,W,210726.000,A,A*4D
$GPGSA,A,3,26,07,16,09,27,23,,,,,,,1.66,1.36,0.95*02
$GPGSV,3,1,11,09,65,258,16,23,51,180,29,27,50,101,28,07,49,299,34*7B
$GPGSV,3,2,11,16,40,051,38,08,39,156,,26,14,057,40,30,12,287,26*7A
$GPGSV,3,3,11,05,04,330,21,21,03,044,16,43,,,*7B
$GPRMC,210726.000,A,4459.0207,N,09314.6336,W,0.20,177.43,110317,,,A*7B
$GPVTG,177.43,T,,M,0.20,N,0.37,K,A*3D
$PGTOP,11,2*6E
$GPGGA,210727.000,4459.0207,N,09314.6336,W,1,06,1.36,282.6,M,-31.9,M,,*53
$GPGLL,4459.0207,N,09314.6336,W,210727.000,A,A*4C
$GPGSA,A,3,26,07,16,09,27,23,,,,,,,1.66,1.36,0.95*02
$GPGSV,3,1,11,09,65,258,16,23,51,180,29,27,50,101,29,07,49,299,34*7A
$GPGSV,3,2,11,16,40,051,38,08,39,156,,26,14,057,40,30,12,287,25*79
$GPGSV,3,3,11,05,04,330,21,21,03,044,16,43,,,*7B
$GPRMC,210727.000,A,4459.0207,N,09314.6336,W,0.38,197.89,110317,,,A*7B
$GPVTG,197.89,T,,M,0.38,N,0.70,K,A*3F
$PGTOP,11,2*6E
$GPGGA,210728.000,4459.0206,N,09314.6337,W,1,06,1.36,282.6,M,-31.9,M,,*5C
$GPGLL,4459.0206,N,09314.6337,W,210728.000,A,A*43
$GPGSA,A,3,26,07,16,09,27,23,,,,,,,1.66,1.36,0.95*02
$GPGSV,3,1,11,09,65,258,15,23,50,180,29,27,50,101,29,07,49,299,33*7F
$GPGSV,3,2,11,16,40,051,38,08,39,156,,26,14,057,40,30,12,287,25*79
$GPGSV,3,3,11,05,04,330,21,21,03,044,16,43,,,*7B
$GPRMC,210728.000,A,4459.0206,N,09314.6337,W,0.24,190.75,110317,,,A*7D
$GPVTG,190.75,T,,M,0.24,N,0.45,K,A*30
$PGTOP,11,2*6E
$GPGGA,210729.000,4459.0205,N,09314.6337,W,1,06,1.36,282.6,M,-31.9,M,,*5E
$GPGLL,4459.0205,N,09314.6337,W,210729.000,A,A*41
$GPGSA,A,3,26,07,16,09,27,23,,,,,,,1.66,1.36,0.95*02
$GPGSV,3,1,11,09,65,258,17,23,50,180,30,27,50,101,29,07,49,299,33*75
$GPGSV,3,2,11,16,40,051,38,08,39,156,,26,14,057,40,30,12,287,25*79
$GPGSV,3,3,11,05,04,330,21,21,03,044,16,43,,,*7B
$GPRMC,210729.000,A,4459.0205,N,09314.6337,W,0.05,203.27,110317,,,A*72
$GPVTG,203.27,T,,M,0.05,N,0.10,K,A*3D
$PGTOP,11,2*6E
$GPGGA,210730.000,4459.0205,N,09314.6337,W,1,06,1.36,282.6,M,-31.9,M,,*56
$GPGLL,4459.0205,N,09314.6337,W,210730.000,A,A*49
$GPGSA,A,3,26,07,16,09,27,23,,,,,,,1.66,1.36,0.95*02
$GPGSV,3,1,11,09,65,258,15,23,50,180,31,27,50,101,29,07,49,299,32*77
$GPGSV,3,2,11,16,40,051,38,08,39,156,,26,14,057,40,30,12,287,25*79
$GPGSV,3,3,11,05,04,330,21,21,03,044,16,43,,,*7B
$GPRMC,210730.000,A,4459.0205,N,09314.6337,W,0.10,279.06,110317,,,A*70
$GPVTG,279.06,T,,M,0.10,N,0.19,K,A*3E
$PGTOP,11,2*6E
$GPGGA,210731.000,4459.0205,N,09314.6338,W,1,06,1.36,282.6,M,-31.9,M,,*58
$GPGLL,4459.0205,N,09314.6338,W,210731.000,A,A*47
$GPGSA,A,3,26,07,16,09,27,23,,,,,,,1.66,1.36,0.95*02
$GPGSV,3,1,11,09,65,258,16,23,50,180,31,27,50,101,29,07,49,299,32*74
$GPGSV,3,2,11,16,40,051,38,08,39,156,19,26,14,057,40,30,12,287,25*71
$GPGSV,3,3,11,05,04,330,20,21,03,044,17,43,,,*7B
$GPRMC,210731.000,A,4459.0205,N,09314.6338,W,0.09,344.48,110317,,,A*73
$GPVTG,344.48,T,,M,0.09,N,0.17,K,A*3D
$PGTOP,11,2*6E
$GPGGA,210732.000,4459.0206,N,09314.6338,W,1,06,1.36,282.6,M,-31.9,M,,*58
$GPGLL,4459.0206,N,09314.6338,W,210732.000,A,A*47
$GPGSA,A,3,26,07,16,09,27,23,,,,,,,1.66,1.36,0.95*02
$GPGSV,3,1,11,09,65,258,17,27,51,101,30,23,50,180,31,07,49,299,32*7C
$GPGSV,3,2,11,16,40,051,38,08,39,156,20,26,14,057,40,30,12,287,25*7B
$GPGSV,3,3,11,05,04,330,20,21,03,044,17,45,,,*7D
$GPRMC,210732.000,A,4459.0206,N,09314.6338,W,0.05,316.22,110317,,,A*74
$GPVTG,316.22,T,,M,0.05,N,0.09,K,A*35
$PGTOP,11,2*6E
$GPGGA,210733.000,4459.0206,N,09314.6338,W,1,06,1.36,282.6,M,-31.9,M,,*59
$GPGLL,4459.0206,N,09314.6338,W,210733.000,A,A*46
$GPGSA,A,3,26,07,16,09,27,23,,,,,,,1.66,1.36,0.95*02
$GPGSV,3,1,11,09,65,258,18,27,51,101,31,23,50,180,31,07,49,299,32*72
$GPGSV,3,2,11,16,40,051,38,08,39,156,22,26,14,057,40,30,12,287,26*7A
$GPGSV,3,3,11,05,04,330,19,21,03,044,17,45,,,*77
$GPRMC,210733.000,A,4459.0206,N,09314.6338,W,0.11,233.39,110317,,,A*7C
$GPVTG,233.39,T,,M,0.11,N,0.21,K,A*36
$PGTOP,11,2*6E
$GPGGA,210734.000,4459.0206,N,09314.6338,W,1,06,1.36,282.6,M,-31.9,M,,*5E
$GPGLL,4459.0206,N,09314.6338,W,210734.000,A,A*41
$GPGSA,A,3,26,07,16,09,27,23,,,,,,,1.66,1.36,0.95*02
$GPGSV,3,1,11,09,65,258,19,27,51,101,31,23,50,180,31,07,49,299,33*72
$GPGSV,3,2,11,16,40,051,38,08,39,156,23,26,14,057,40,30,12,287,26*7B
$GPGSV,3,3,11,05,04,330,18,21,03,044,17,45,,,*76
$GPRMC,210734.000,A,4459.0206,N,09314.6338,W,0.26,281.27,110317,,,A*79
$GPVTG,281.27,T,,M,0.26,N,0.49,K,A*3A
$PGTOP,11,2*6E
$GPGGA,210735.000,4459.0206,N,09314.6339,W,1,06,1.36,282.6,M,-31.9,M,,*5E
$GPGLL,4459.0206,N,09314.6339,W,210735.000,A,A*41
$GPGSA,A,3,26,07,16,09,27,23,,,,,,,1.66,1.36,0.95*02
$GPGSV,3,1,11,09,65,258,19,27,51,101,32,23,50,180,31,07,49,299,33*71
$GPGSV,3,2,11,16,40,051,38,08,39,156,23,26,14,057,40,30,12,287,25*78
$GPGSV,3,3,11,05,04,330,18,21,03,044,18,45,,,*79
$GPRMC,210735.000,A,4459.0206,N,09314.6339,W,0.16,335.29,110317,,,A*7A
$GPVTG,335.29,T,,M,0.16,N,0.30,K,A*37
$PGTOP,11,2*6E
$GPGGA,210736.000,4459.0206,N,09314.6340,W,1,06,1.36,282.5,M,-31.9,M,,*50
$GPGLL,4459.0206,N,09314.6340,W,210736.000,A,A*4C
$GPGSA,A,3,26,07,16,09,27,23,,,,,,,1.66,1.36,0.95*02
$GPGSV,3,1,11,09,65,258,20,27,51,101,32,23,50,180,30,07,49,299,34*7D
$GPGSV,3,2,11,16,40,051,38,08,39,156,23,26,14,057,40,30,12,287,25*78
$GPGSV,3,3,11,05,04,330,18,21,03,044,18,45,,,*79
$GPRMC,210736.000,A,4459.0206,N,09314.6340,W,0.40,324.07,110317,,,A*78
$GPVTG,324.07,T,,M,0.40,N,0.74,K,A*38
$PGTOP,11,2*6E
$GPGGA,210737.000,4459.0207,N,09314.6341,W,1,06,1.36,282.5,M,-31.9,M,,*51
$GPGLL,4459.0207,N,09314.6341,W,210737.000,A,A*4D
$GPGSA,A,3,26,07,16,09,27,23,,,,,,,1.66,1.36,0.95*02
$GPGSV,3,1,11,09,65,258,21,27,51,101,32,23,50,180,30,07,49,299,33*7B
$GPGSV,3,2,11,16,40,051,38,08,39,156,23,26,14,057,40,30,12,287,25*78
$GPGSV,3,3,11,05,04,330,17,21,03,044,18,45,,,*76
$GPRMC,210737.000,A,4459.0207,N,09314.6341,W,0.28,325.21,110317,,,A*72
$GPVTG,325.21,T,,M,0.28,N,0.53,K,A*36
$PGTOP,11,2*6E
$GPGGA,210738.000,4459.0208,N,09314.6342,W,1,06,1.36,282.5,M,-31.9,M,,*52
$GPGLL,4459.0208,N,09314.6342,W,210738.000,A,A*4E
$GPGSA,A,3,26,07,16,09,27,23,,,,,,,1.66,1.36,0.95*02
$GPGSV,3,1,11,09,65,258,22,27,51,101,32,23,50,180,30,07,49,299,34*7F
$GPGSV,3,2,11,16,40,051,38,08,39,156,24,26,14,057,40,30,12,287,25*7F
$GPGSV,3,3,11,05,04,330,17,21,03,044,19,46,,,*74
$GPRMC,210738.000,A,4459.0208,N,09314.6342,W,0.21,302.03,110317,,,A*7D
$GPVTG,302.03,T,,M,0.21,N,0.39,K,A*36
$PGTOP,11,2*6E
$GPGGA,210739.000,4459.0208,N,09314.6342,W,1,06,1.36,282.5,M,-31.9,M,,*53
$GPGLL,4459.0208,N,09314.6342,W,210739.000,A,A*4F
$GPGSA,A,3,26,07,16,09,27,23,,,,,,,1.66,1.36,0.95*02
$GPGSV,3,1,11,09,65,258,22,27,51,101,32,23,50,180,30,07,49,299,34*7F
$GPGSV,3,2,11,16,40,051,38,08,39,156,24,26,14,057,40,30,12,287,25*7F
$GPGSV,3,3,11,05,04,330,16,21,03,044,19,46,,,*75
$GPRMC,210739.000,A,4459.0208,N,09314.6342,W,0.21,297.74,110317,,,A*71
$GPVTG,297.74,T,,M,0.21,N,0.38,K,A*3A
$PGTOP,11,2*6E
$GPGGA,210740.000,4459.0209,N,09314.6343,W,1,06,1.36,282.5,M,-31.9,M,,*5D
$GPGLL,4459.0209,N,09314.6343,W,210740.000,A,A*41
$GPGSA,A,3,26,07,16,09,27,23,,,,,,,1.66,1.36,0.95*02
$GPGSV,3,1,11,09,65,258,22,27,51,101,32,23,50,180,30,07,49,299,34*7F
$GPGSV,3,2,11,16,40,051,38,08,39,156,24,26,14,057,40,30,12,287,25*7F
$GPGSV,3,3,11,05,04,330,15,21,03,044,19,46,,,*76
$GPRMC,210740.000,A,4459.0209,N,09314.6343,W,0.20,266.14,110317,,,A*76
$GPVTG,266.14,T,,M,0.20,N,0.38,K,A*33
$PGTOP,11,2*6E
$GPGGA,210741.000,4459.0209,N,09314.6344,W,1,06,1.36,282.5,M,-31.9,M,,*5B
$GPGLL,4459.0209,N,09314.6344,W,210741.000,A,A*47
$GPGSA,A,3,26,07,16,09,27,23,,,,,,,1.66,1.36,0.95*02
$GPGSV,3,1,11,09,65,258,24,27,51,101,32,23,50,180,30,07,49,299,34*79
$GPGSV,3,2,11,16,40,051,38,08,39,156,25,26,14,057,40,30,12,287,25*7E
$GPGSV,3,3,11,05,04,330,15,21,03,044,19,46,,,*76
$GPRMC,210741.000,A,4459.0209,N,09314.6344,W,0.19,325.84,110317,,,A*75
$GPVTG,325.84,T,,M,0.19,N,0.35,K,A*3B
$PGTOP,11,2*6E
$GPGGA,210742.000,4459.0209,N,09314.6344,W,1,06,1.36,282.5,M,-31.9,M,,*58
$GPGLL,4459.0209,N,09314.6344,W,210742.000,A,A*44
$GPGSA,A,3,26,07,16,09,27,23,,,,,,,1.66,1.36,0.95*02
$GPGSV,3,1,11,09,65,258,23,27,51,101,32,23,50,180,30,07,49,299,34*7E
$GPGSV,3,2,11,16,40,051,38,08,39,156,25,26,14,057,40,30,12,287,25*7E
$GPGSV,3,3,11,05,04,330,15,21,03,044,19,46,,,*76
$GPRMC,210742.000,A,4459.0209,N,09314.6344,W,0.12,282.82,110317,,,A*77
$GPVTG,282.82,T,,M,0.12,N,0.23,K,A*3D
$PGTOP,11,2*6E
$GPGGA,210743.000,4459.0209,N,09314.6345,W,1,06,1.36,282.5,M,-31.9,M,,*58
$GPGLL,4459.0209,N,09314.6345,W,210743.000,A,A*44
$GPGSA,A,3,26,07,16,09,27,23,,,,,,,1.66,1.36,0.95*02
$GPGSV,3,1,11,09,65,258,24,27,51,101,32,23,50,180,30,07,49,299,34*79
$GPGSV,3,2,11,16,40,051,38,08,39,156,26,26,14,057,40,30,12,287,25*7D
$GPGSV,3,3,11,05,04,330,15,21,03,044,19,46,,,*76
$GPRMC,210743.000,A,4459.0209,N,09314.6345,W,0.21,321.62,110317,,,A*71
$GPVTG,321.62,T,,M,0.21,N,0.39,K,A*30
$PGTOP,11,2*6E
$GPGGA,210744.000,4459.0210,N,09314.6345,W,1,06,1.36,282.5,M,-31.9,M,,*57
$GPGLL,4459.0210,N,09314.6345,W,210744.000,A,A*4B
$GPGSA,A,3,26,07,16,09,27,23,,,,,,,1.66,1.36,0.95*02
$GPGSV,3,1,11,09,65,258,24,27,51,101,32,23,50,180,30,07,49,299,34*79
$GPGSV,3,2,11,16,40,051,38,08,39,156,26,26,14,057,40,30,12,287,25*7D
$GPGSV,3,3,11,05,04,330,,21,03,044,19,46,,,*72
$GPRMC,210744.000,A,4459.0210,N,09314.6345,W,0.20,351.96,110317,,,A*73
$GPVTG,351.96,T,,M,0.20,N,0.37,K,A*33
$PGTOP,11,2*6E
$GPGGA,210745.000,4459.0211,N,09314.6346,W,1,06,1.65,282.5,M,-31.9,M,,*52
$GPGLL,4459.0211,N,09314.6346,W,210745.000,A,A*48
$GPGSA,A,3,26,07,16,09,27,23,,,,,,,3.53,1.65,3.12*0C
$GPGSV,3,1,11,09,65,258,25,27,51,101,32,23,50,180,30,07,49,299,34*78
$GPGSV,3,2,11,16,40,051,38,08,39,156,26,26,14,057,40,30,12,287,25*7D
$GPGSV,3,3,11,05,05,330,,21,03,044,19,47,,,*72
$GPRMC,210745.000,A,4459.0211,N,09314.6346,W,0.33,8.38,110317,,,A*79
$GPVTG,8.38,T,,M,0.33,N,0.62,K,A*3A
$PGTOP,11,2*6E
$GPGGA,210746.000,4459.0212,N,09314.6346,W,1,06,1.65,282.5,M,-31.9,M,,*52
$GPGLL,4459.0212,N,09314.6346,W,210746.000,A,A*48
$GPGSA,A,3,26,07,16,09,27,23,,,,,,,3.53,1.65,3.12*0C
$GPGSV,3,1,11,09,65,258,23,27,51,101,31,23,50,180,30,07,49,299,34*7D
$GPGSV,3,2,11,16,40,051,38,08,39,156,26,26,14,057,40,30,12,287,25*7D
$GPGSV,3,3,11,05,05,330,,21,03,044,19,47,,,*72
$GPRMC,210746.000,A,4459.0212,N,09314.6346,W,0.42,6.48,110317,,,A*76
$GPVTG,6.48,T,,M,0.42,N,0.78,K,A*3E
$PGTOP,11,2*6E
$GPGGA,210747.000,4459.0213,N,09314.6345,W,1,06,1.65,282.4,M,-31.9,M,,*50
$GPGLL,4459.0213,N,09314.6345,W,210747.000,A,A*4B
$GPGSA,A,3,26,07,16,09,27,23,,,,,,,3.52,1.65,3.11*0E
$GPGSV,3,1,11,09,65,258,23,27,51,101,31,23,50,180,30,07,49,299,34*7D
$GPGSV,3,2,11,16,40,051,38,08,39,156,26,26,14,057,40,30,12,287,25*7D
$GPGSV,3,3,11,05,05,330,,21,03,044,19,47,,,*72
$GPRMC,210747.000,A,4459.0213,N,09314.6345,W,0.33,340.85,110317,,,A*73
$GPVTG,340.85,T,,M,0.33,N,0.61,K,A*30
$PGTOP,11,2*6E
$GPGGA,210748.000,4459.0214,N,09314.6346,W,1,06,1.36,282.4,M,-31.9,M,,*5D
$GPGLL,4459.0214,N,09314.6346,W,210748.000,A,A*40
$GPGSA,A,3,26,07,16,09,27,23,,,,,,,1.66,1.36,0.95*02
$GPGSV,3,1,11,09,65,258,22,27,51,101,31,23,50,180,29,07,49,299,34*74
$GPGSV,3,2,11,16,40,051,38,08,39,156,26,26,14,057,39,30,12,287,25*73
$GPGSV,3,3,11,05,05,330,,21,03,044,18,47,,,*73
$GPRMC,210748.000,A,4459.0214,N,09314.6346,W,0.38,339.21,110317,,,A*73
$GPVTG,339.21,T,,M,0.38,N,0.70,K,A*3B
$PGTOP,11,2*6E
$GPGGA,210749.000,4459.0215,N,09314.6346,W,1,06,1.36,282.4,M,-31.9,M,,*5D
$GPGLL,4459.0215,N,09314.6346,W,210749.000,A,A*40
$GPGSA,A,3,26,07,16,09,27,23,,,,,,,1.66,1.36,0.95*02
$GPGSV,3,1,11,09,65,258,22,27,51,101,31,23,50,180,29,07,49,299,34*74
$GPGSV,3,2,11,16,40,051,38,08,39,156,26,26,14,057,39,30,12,287,25*73
$GPGSV,3,3,11,05,05,330,18,21,03,044,17,47,,,*75
$GPRMC,210749.000,A,4459.0215,N,09314.6346,W,0.33,335.91,110317,,,A*7F
$GPVTG,335.91,T,,M,0.33,N,0.61,K,A*37
$PGTOP,11,2*6E
$GPGGA,210750.000,4459.0216,N,09314.6347,W,1,06,1.36,282.4,M,-31.9,M,,*57
$GPGLL,4459.0216,N,09314.6347,W,210750.000,A,A*4A
$GPGSA,A,3,26,07,16,09,27,23,,,,,,,1.66,1.36,0.95*02
$GPGSV,3,1,11,09,65,258,23,27,51,101,31,23,50,180,29,07,49,299,34*75
$GPGSV,3,2,11,16,40,051,38,08,39,156,26,26,14,057,38,30,12,287,25*72
$GPGSV,3,3,11,05,05,330,18,21,03,044,16,47,,,*74
$GPRMC,210750.000,A,4459.0216,N,09314.6347,W,0.25,353.28,110317,,,A*70
$GPVTG,353.28,T,,M,0.25,N,0.46,K,A*37
$PGTOP,11,2*6E
$GPGGA,210751.000,4459.0216,N,09314.6347,W,1,06,1.65,282.4,M,-31.9,M,,*50
$GPGLL,4459.0216,N,09314.6347,W,210751.000,A,A*4B
$GPGSA,A,3,26,07,16,09,27,23,,,,,,,3.52,1.65,3.11*0E
$GPGSV,3,1,11,09,65,258,23,27,51,101,31,23,50,180,29,07,49,299,34*75
$GPGSV,3,2,11,16,40,051,38,08,39,156,26,26,14,057,38,30,12,287,25*72
$GPGSV,3,3,11,05,05,330,17,21,03,044,16,49,,,*75
$GPRMC,210751.000,A,4459.0216,N,09314.6347,W,0.36,347.39,110317,,,A*76
$GPVTG,347.39,T,,M,0.36,N,0.68,K,A*3C
$PGTOP,11,2*6E
$GPGGA,210752.000,4459.0217,N,09314.6348,W,1,06,1.65,282.4,M,-31.9,M,,*5D
$GPGLL,4459.0217,N,09314.6348,W,210752.000,A,A*46
$GPGSA,A,3,26,07,16,09,27,23,,,,,,,3.52,1.65,3.11*0E
$GPGSV,3,1,11,09,65,258,23,27,51,101,31,23,50,180,28,07,49,299,34*74
$GPGSV,3,2,11,16,40,051,38,08,39,156,26,26,14,057,38,30,12,287,25*72
$GPGSV,3,3,11,05,05,330,18,21,03,044,16,49,,,*7A
$GPRMC,210752.000,A,4459.0217,N,09314.6348,W,0.26,334.49,110317,,,A*79
$GPVTG,334.49,T,,M,0.26,N,0.49,K,A*3D
$PGTOP,11,2*6E
$GPGGA,210753.000,4459.0218,N,09314.6348,W,1,06,1.36,282.4,M,-31.9,M,,*55
$GPGLL,4459.0218,N,09314.6348,W,210753.000,A,A*48
$GPGSA,A,3,26,07,16,09,27,23,,,,,,,1.66,1.36,0.95*02
$GPGSV,3,1,11,09,65,258,22,27,51,101,31,23,50,180,28,07,49,299,34*75
$GPGSV,3,2,11,16,40,051,38,08,39,156,25,26,14,057,38,30,12,287,25*71
$GPGSV,3,3,11,05,05,330,18,21,03,044,15,49,,,*79
$GPRMC,210753.000,A,4459.0218,N,09314.6348,W,0.26,334.29,110317,,,A*71
$GPVTG,334.29,T,,M,0.26,N,0.48,K,A*3A
$PGTOP,11,2*6E
$GPGGA,210754.000,4459.0219,N,09314.6349,W,1,06,1.36,282.4,M,-31.9,M,,*52
$GPGLL,4459.0219,N,09314.6349,W,210754.000,A,A*4F
$GPGSA,A,3,26,07,16,09,27,23,,,,,,,1.66,1.36,0.95*02
$GPGSV,3,1,11,09,65,258,22,27,51,101,31,23,50,180,28,07,49,299,34*75
$GPGSV,3,2,11,16,40,051,38,08,39,156,25,26,14,057,38,30,12,287,25*71
$GPGSV,3,3,11,05,05,330,17,21,03,044,14,49,,,*77
$GPRMC,210754.000,A,4459.0219,N,09314.6349,W,0.14,303.92,110317,,,A*73
$GPVTG,303.92,T,,M,0.14,N,0.26,K,A*37
$PGTOP,11,2*6E
$GPGGA,210755.000,4459.0219,N,09314.6349,W,1,06,1.36,282.4,M,-31.9,M,,*53
$GPGLL,4459.0219,N,09314.6349,W,210755.000,A,A*4E
$GPGSA,A,3,26,07,16,09,27,23,,,,,,,1.66,1.36,0.95*02
$GPGSV,3,1,11,09,65,258,22,27,51,101,31,23,50,180,28,07,49,299,34*75
$GPGSV,3,2,11,16,40,051,38,08,39,156,25,26,14,057,38,30,12,287,25*71
$GPGSV,3,3,11,05,05,330,17,21,03,044,14,49,,,*77
$GPRMC,210755.000,A,4459.0219,N,09314.6349,W,0.14,238.46,110317,,,A*72
$GPVTG,238.46,T,,M,0.14,N,0.27,K,A*36
$PGTOP,11,2*6E
$GPGGA,210756.000,4459.0219,N,09314.6350,W,1,06,1.36,282.4,M,-31.9,M,,*58
$GPGLL,4459.0219,N,09314.6350,W,210756.000,A,A*45
$GPGSA,A,3,26,07,16,09,27,23,,,,,,,1.66,1.36,0.95*02
$GPGSV,3,1,11,09,65,258,22,27,51,101,31,23,50,180,28,07,49,299,34*75
$GPGSV,3,2,11,16,40,051,38,08,39,156,25,26,14,057,38,30,12,287,25*71
$GPGSV,3,3,11,05,05,330,16,21,03,044,13,49,,,*71
$GPRMC,210756.000,A,4459.0219,N,09314.6350,W,0.32,212.17,110317,,,A*71
$GPVTG,212.17,T,,M,0.32,N,0.60,K,A*3D
$PGTOP,11,2*6E
$GPGGA,210757.000,4459.0218,N,09314.6351,W,1,06,1.36,282.3,M,-31.9,M,,*5E
$GPGLL,4459.0218,N,09314.6351,W,210757.000,A,A*44
$GPGSA,A,3,26,07,16,09,27,23,,,,,,,1.66,1.36,0.95*02
$GPGSV,3,1,11,09,65,258,21,27,51,101,30,23,50,180,28,07,49,299,34*77
$GPGSV,3,2,11,16,40,051,38,08,39,156,25,26,14,057,38,30,12,287,25*71
$GPGSV,3,3,11,05,05,330,16,21,03,044,12,49,,,*70
$GPRMC,210757.000,A,4459.0218,N,09314.6351,W,0.37,202.25,110317,,,A*75
$GPVTG,202.25,T,,M,0.37,N,0.69,K,A*31
$PGTOP,11,2*6E
$GPGGA,210758.000,4459.0217,N,09314.6351,W,1,06,1.36,282.3,M,-31.9,M,,*5E
$GPGLL,4459.0217,N,09314.6351,W,210758.000,A,A*44
$GPGSA,A,3,26,07,16,09,27,23,,,,,,,1.66,1.36,0.95*02
$GPGSV,3,1,11,09,65,258,21,27,51,101,30,23,50,180,27,07,49,299,34*78
$GPGSV,3,2,11,16,40,051,38,08,39,156,25,26,14,057,38,30,12,287,25*71
$GPGSV,3,3,11,05,05,330,16,21,03,044,11,33,00,098,*4F
$GPRMC,210758.000,A,4459.0217,N,09314.6351,W,0.31,199.61,110317,,,A*72
$GPVTG,199.61,T,,M,0.31,N,0.57,K,A*3B
$PGTOP,11,2*6E
$GPGGA,210759.000,4459.0216,N,09314.6352,W,1,06,1.36,282.3,M,-31.9,M,,*5D
$GPGLL,4459.0216,N,09314.6352,W,210759.000,A,A*47
$GPGSA,A,3,26,07,16,09,27,23,,,,,,,1.66,1.36,0.95*02
$GPGSV,3,1,11,09,65,258,22,27,51,101,30,23,50,180,26,07,49,299,34*7A
$GPGSV,3,2,11,16,40,051,38,08,39,156,25,26,14,057,38,30,12,287,25*71
$GPGSV,3,3,11,05,05,330,16,21,03,044,11,33,00,098,*4F
$GPRMC,210759.000,A,4459.0216,N,09314.6352,W,0.15,201.97,110317,,,A*7C
$GPVTG,201.97,T,,M,0.15,N,0.29,K,A*3F
$PGTOP,11,2*6E
$GPGGA,210800.000,4459.0216,N,09314.6352,W,1,06,1.36,282.3,M,-31.9,M,,*5E
$GPGLL,4459.0216,N,09314.6352,W,210800.000,A,A*44
$GPGSA,A,3,26,07,16,09,27,23,,,,,,,1.66,1.36,0.95*02
$GPGSV,3,1,11,09,65,258,22,27,51,101,30,23,50,180,26,07,49,299,33*7D
$GPGSV,3,2,11,16,40,051,38,08,39,156,25,26,14,057,38,30,12,287,25*71
$GPGSV,3,3,11,05,05,330,15,21,03,044,11,33,00,098,*4C
$GPRMC,210800.000,A,4459.0216,N,09314.6352,W,0.18,216.67,110317,,,A*7B
$GPVTG,216.67,T,,M,0.18,N,0.33,K,A*30
$PGTOP,11,2*6E
$GPGGA,210801.000,4459.0216,N,09314.6352,W,1,06,1.36,282.3,M,-31.9,M,,*5F
$GPGLL,4459.0216,N,09314.6352,W,210801.000,A,A*45
$GPGSA,A,3,26,07,16,09,27,23,,,,,,,1.66,1.36,0.95*02
$GPGSV,3,1,11,09,65,258,21,27,51,101,30,23,50,180,25,07,49,299,33*7D
$GPGSV,3,2,11,16,40,051,38,08,39,156,25,26,14,057,37,30,12,287,25*7E
$GPGSV,3,3,11,05,05,330,14,21,03,044,11,33,00,098,*4D
$GPRMC,210801.000,A,4459.0216,N,09314.6352,W,0.27,233.39,110317,,,A*7A
$GPVTG,233.39,T,,M,0.27,N,0.50,K,A*35
$PGTOP,11,2*6E
$GPGGA,210802.000,4459.0215,N,09314.6353,W,1,06,1.36,282.3,M,-31.9,M,,*5E
$GPGLL,4459.0215,N,09314.6353,W,210802.000,A,A*44
$GPGSA,A,3,26,07,16,09,27,23,,,,,,,1.66,1.36,0.95*02
$GPGSV,3,1,11,09,65,258,21,27,51,101,30,23,50,180,25,07,49,299,33*7D
$GPGSV,3,2,11,16,40,051,38,08,39,156,25,26,14,057,37,30,12,287,26*7D
$GPGSV,3,3,11,05,05,330,13,21,03,044,12,33,00,098,*49
$GPRMC,210802.000,A,4459.0215,N,09314.6353,W,0.20,301.12,110317,,,A*75
$GPVTG,301.12,T,,M,0.20,N,0.36,K,A*3B
$PGTOP,11,2*6E
$GPGGA,210803.000,4459.0216,N,09314.6354,W,1,06,1.36,282.3,M,-31.9,M,,*5B
$GPGLL,4459.0216,N,09314.6354,W,210803.000,A,A*41
$GPGSA,A,3,26,07,16,09,27,23,,,,,,,1.66,1.36,0.95*02
$GPGSV,3,1,11,09,65,258,22,27,51,101,30,23,50,180,25,07,49,299,33*7E
$GPGSV,3,2,11,16,40,051,38,08,39,156,25,26,14,057,37,30,12,287,26*7D
$GPGSV,3,3,11,05,05,330,13,21,03,044,13,33,00,098,*48
$GPRMC,210803.000,A,4459.0216,N,09314.6354,W,0.23,314.72,110317,,,A*71
$GPVTG,314.72,T,,M,0.23,N,0.42,K,A*39
$PGTOP,11,2*6E
$GPGGA,210804.000,4459.0216,N,09314.6355,W,1,06,1.36,282.3,M,-31.9,M,,*5D
$GPGLL,4459.0216,N,09314.6355,W,210804.000,A,A*47
$GPGSA,A,3,26,07,16,09,27,23,,,,,,,1.66,1.36,0.95*02
$GPGSV,3,1,11,09,65,258,22,27,51,101,30,23,50,180,25,07,49,299,33*7E
$GPGSV,3,2,11,16,40,051,38,08,39,156,25,26,14,057,37,30,12,287,26*7D
$GPGSV,3,3,11,05,05,330,13,21,03,044,14,37,,,*7A
$GPRMC,210804.000,A,4459.0216,N,09314.6355,W,0.17,352.08,110317,,,A*7F
$GPVTG,352.08,T,,M,0.17,N,0.31,K,A*35
$PGTOP,11,2*6E
$GPGGA,210805.000,4459.0217,N,09314.6355,W,1,06,1.65,282.3,M,-31.9,M,,*5B
$GPGLL,4459.0217,N,09314.6355,W,210805.000,A,A*47
$GPGSA,A,3,26,07,16,09,27,23,,,,,,,3.51,1.65,3.10*0C
$GPGSV,3,1,11,09,65,258,22,27,51,101,30,23,50,180,25,07,49,299,34*79
$GPGSV,3,2,11,16,40,051,38,08,39,156,25,26,14,057,37,30,12,287,26*7D
$GPGSV,3,3,11,05,05,330,13,21,03,044,14,37,,,*7A
$GPRMC,210805.000,A,4459.0217,N,09314.6355,W,0.27,335.06,110317,,,A*73
$GPVTG,335.06,T,,M,0.27,N,0.51,K,A*3F
$PGTOP,11,2*6E
$GPGGA,210806.000,4459.0218,N,09314.6355,W,1,06,1.36,282.3,M,-31.9,M,,*51
$GPGLL,4459.0218,N,09314.6355,W,210806.000,A,A*4B
$GPGSA,A,3,26,07,16,09,27,23,,,,,,,1.66,1.36,0.95*02
$GPGSV,3,1,11,09,65,258,21,27,51,101,30,23,50,180,25,07,49,299,34*7A
$GPGSV,3,2,11,16,40,051,38,08,39,156,25,26,13,057,37,30,12,287,26*7A
$GPGSV,3,3,11,05,05,330,13,21,03,044,15,37,,,*7B
$GPRMC,210806.000,A,4459.0218,N,09314.6355,W,0.19,5.67,110317,,,A*75
$GPVTG,5.67,T,,M,0.19,N,0.35,K,A*37
$PGTOP,11,2*6E
$GPGGA,210807.000,4459.0218,N,09314.6355,W,1,06,1.65,282.3,M,-31.9,M,,*56
$GPGLL,4459.0218,N,09314.6355,W,210807.000,A,A*4A
$GPGSA,A,3,26,07,16,09,27,23,,,,,,,3.51,1.65,3.10*0C
$GPGSV,3,1,11,09,65,258,21,27,51,100,30,23,50,180,25,07,49,299,34*7B
$GPGSV,3,2,11,16,40,051,38,08,39,156,25,26,13,057,37,30,12,287,26*7A
$GPGSV,3,3,11,05,05,330,14,21,03,044,15,37,,,*7C
$GPRMC,210807.000,A,4459.0218,N,09314.6355,W,0.11,323.95,110317,,,A*76
$GPVTG,323.95,T,,M,0.11,N,0.21,K,A*30
$PGTOP,11,2*6E
$GPGGA,210808.000,4459.0218,N,09314.6356,W,1,06,1.36,282.3,M,-31.9,M,,*5C
$GPGLL,4459.0218,N,09314.6356,W,210808.000,A,A*46
$GPGSA,A,3,26,07,16,09,27,23,,,,,,,1.66,1.36,0.95*02
$GPGSV,3,1,11,09,65,258,21,27,51,100,30,23,50,180,25,07,49,299,34*7B
$GPGSV,3,2,11,16,40,051,38,08,39,156,25,26,13,057,37,30,12,287,26*7A
$GPGSV,3,3,11,05,05,330,14,21,03,044,15,37,,,*7C
$GPRMC,210808.000,A,4459.0218,N,09314.6356,W,0.21,328.30,110317,,,A*7D
$GPVTG,328.30,T,,M,0.21,N,0.38,K,A*3F
$PGTOP,11,2*6E
$GPGGA,210809.000,4459.0219,N,09314.6356,W,1,06,1.36,282.3,M,-31.9,M,,*5C
$GPGLL,4459.0219,N,09314.6356,W,210809.000,A,A*46
$GPGSA,A,3,26,07,16,09,27,23,,,,,,,1.66,1.36,0.95*02
$GPGSV,3,1,11,09,65,258,21,27,51,100,31,23,50,180,25,07,49,299,34*7A
$GPGSV,3,2,11,16,40,051,38,08,39,156,25,26,13,057,37,30,12,287,26*7A
$GPGSV,3,3,11,05,05,330,14,21,03,044,15,37,,,*7C
$GPRMC,210809.000,A,4459.0219,N,09314.6356,W,0.24,318.23,110317,,,A*79
$GPVTG,318.23,T,,M,0.24,N,0.45,K,A*31
$PGTOP,11,2*6E
$GPGGA,210810.000,4459.0219,N,09314.6357,W,1,06,1.36,282.3,M,-31.9,M,,*55
$GPGLL,4459.0219,N,09314.6357,W,210810.000,A,A*4F
$GPGSA,A,3,26,07,16,09,27,23,,,,,,,1.66,1.36,0.95*02
$GPGSV,3,1,11,09,65,258,21,27,51,100,31,23,50,180,25,07,49,299,34*7A
$GPGSV,3,2,11,16,40,051,38,08,39,156,25,26,13,057,37,30,13,287,27*7A
$GPGSV,3,3,11,05,05,330,15,21,03,044,15,39,,,*73
$GPRMC,210810.000,A,4459.0219,N,09314.6357,W,0.19,322.99,110317,,,A*76
$GPVTG,322.99,T,,M,0.19,N,0.35,K,A*30
$PGTOP,11,2*6E
$GPGGA,210811.000,4459.0220,N,09314.6357,W,1,06,1.36,282.3,M,-31.9,M,,*5E
$GPGLL,4459.0220,N,09314.6357,W,210811.000,A,A*44
$GPGSA,A,3,26,07,16,09,27,23,,,,,,,1.66,1.36,0.95*02
$GPGSV,3,1,11,09,65,258,22,27,51,100,31,23,50,180,25,07,49,299,34*79
$GPGSV,3,2,11,16,40,051,38,08,39,156,25,26,13,057,37,30,13,287,27*7A
$GPGSV,3,3,11,05,05,330,16,21,03,044,15,39,,,*70
$GPRMC,210811.000,A,4459.0220,N,09314.6357,W,0.17,317.43,110317,,,A*72
$GPVTG,317.43,T,,M,0.17,N,0.31,K,A*3B
$PGTOP,11,2*6E
$GPGGA,210812.000,4459.0220,N,09314.6358,W,1,06,1.36,282.2,M,-31.9,M,,*53
$GPGLL,4459.0220,N,09314.6358,W,210812.000,A,A*48
$GPGSA,A,3,26,07,16,09,27,23,,,,,,,1.66,1.36,0.95*02
$GPGSV,3,1,11,09,65,258,23,27,51,100,31,23,50,180,25,07,49,299,34*78
$GPGSV,3,2,11,16,40,051,38,08,39,156,25,26,13,057,37,30,13,287,27*7A
$GPGSV,3,3,11,05,05,330,16,21,03,044,15,39,,,*70
$GPRMC,210812.000,A,4459.0220,N,09314.6358,W,0.16,347.12,110317,,,A*7E
$GPVTG,347.12,T,,M,0.16,N,0.29,K,A*32
$PGTOP,11,2*6E
$GPGGA,210813.000,4459.0221,N,09314.6358,W,1,06,1.64,282.2,M,-31.9,M,,*54
$GPGLL,4459.0221,N,09314.6358,W,210813.000,A,A*48
$GPGSA,A,3,26,07,16,09,27,23,,,,,,,3.50,1.64,3.09*04
$GPGSV,3,1,11,09,65,258,23,27,51,100,31,23,50,180,25,07,49,299,34*78
$GPGSV,3,2,11,16,40,051,38,08,39,156,25,26,13,057,37,30,13,287,27*7A
$GPGSV,3,3,11,05,05,330,16,21,03,044,15,39,,,*70
$GPRMC,210813.000,A,4459.0221,N,09314.6358,W,0.20,314.34,110317,,,A*79
$GPVTG,314.34,T,,M,0.20,N,0.36,K,A*3B
$PGTOP,11,2*6E
$GPGGA,210814.000,4459.0221,N,09314.6359,W,1,06,1.36,282.2,M,-31.9,M,,*55
$GPGLL,4459.0221,N,09314.6359,W,210814.000,A,A*4E
$GPGSA,A,3,26,07,16,09,27,23,,,,,,,1.66,1.36,0.95*02
$GPGSV,3,1,11,09,65,258,21,27,51,100,31,23,50,180,25,07,49,299,34*7A
$GPGSV,3,2,11,16,40,051,38,08,39,156,25,26,13,057,37,30,13,287,27*7A
$GPGSV,3,3,11,05,05,330,16,21,03,044,16,39,,,*73
$GPRMC,210814.000,A,4459.0221,N,09314.6359,W,0.24,303.54,110317,,,A*7B
$GPVTG,303.54,T,,M,0.24,N,0.44,K,A*3A
$PGTOP,11,2*6E
$GPGGA,210815.000,4459.0222,N,09314.6359,W,1,06,1.36,282.2,M,-31.9,M,,*57
$GPGLL,4459.0222,N,09314.6359,W,210815.000,A,A*4C
$GPGSA,A,3,26,07,16,09,27,23,,,,,,,1.66,1.36,0.95*02
$GPGSV,3,1,11,09,65,258,24,27,51,100,31,23,50,180,25,07,49,299,34*7F
$GPGSV,3,2,11,16,40,051,38,08,39,156,25,26,13,057,37,30,13,287,28*75
$GPGSV,3,3,11,05,05,330,16,21,03,044,15,39,,,*70
$GPRMC,210815.000,A,4459.0222,N,09314.6359,W,0.24,318.46,110317,,,A*70
$GPVTG,318.46,T,,M,0.24,N,0.44,K,A*33
$PGTOP,11,2*6E
$GPGGA,210816.000,4459.0222,N,09314.6360,W,1,06,1.36,282.2,M,-31.9,M,,*5E
$GPGLL,4459.0222,N,09314.6360,W,210816.000,A,A*45
$GPGSA,A,3,26,07,16,09,27,23,,,,,,,1.66,1.36,0.95*02
$GPGSV,3,1,11,09,65,258,21,27,51,100,31,23,50,180,25,07,49,299,34*7A
$GPGSV,3,2,11,16,40,051,38,08,39,156,25,26,13,057,37,30,13,287,28*75
$GPGSV,3,3,11,05,05,330,16,21,03,044,15,39,,,*70
$GPRMC,210816.000,A,4459.0222,N,09314.6360,W,0.26,344.32,110317,,,A*71
$GPVTG,344.32,T,,M,0.26,N,0.47,K,A*38
$PGTOP,11,2*6E
$GPGGA,210817.000,4459.0223,N,09314.6360,W,1,06,1.36,282.2,M,-31.9,M,,*5E
$GPGLL,4459.0223,N,09314.6360,W,210817.000,A,A*45
$GPGSA,A,3,26,07,16,09,27,23,,,,,,,1.66,1.36,0.95*02
$GPGSV,3,1,11,09,65,258,21,27,51,100,30,23,50,180,25,07,49,299,34*7B
$GPGSV,3,2,11,16,40,051,38,08,39,156,25,26,13,057,37,30,13,287,28*75
$GPGSV,3,3,11,05,05,330,16,21,03,044,15,50,,,*7F
$GPRMC,210817.000,A,4459.0223,N,09314.6360,W,0.27,340.99,110317,,,A*75
$GPVTG,340.99,T,,M,0.27,N,0.50,K,A*3A
$PGTOP,11,2*6E
$GPGGA,210818.000,4459.0224,N,09314.6361,W,1,06,1.36,282.2,M,-31.9,M,,*57
$GPGLL,4459.0224,N,09314.6361,W,210818.000,A,A*4C
$GPGSA,A,3,26,07,16,09,27,23,,,,,,,1.66,1.36,0.95*02
$GPGSV,3,1,11,09,65,258,19,27,51,100,30,23,50,180,25,07,49,299,35*71
$GPGSV,3,2,11,16,40,051,38,08,39,156,26,26,13,057,37,30,13,287,28*76
$GPGSV,3,3,11,05,05,330,15,21,03,044,15,50,,,*7C
$GPRMC,210818.000,A,4459.0224,N,09314.6361,W,0.36,333.90,110317,,,A*71
$GPVTG,333.90,T,,M,0.36,N,0.66,K,A*32
$PGTOP,11,2*6E
$GPGGA,210819.000,4459.0225,N,09314.6361,W,1,07,1.21,282.2,M,-31.9,M,,*50
$GPGLL,4459.0225,N,09314.6361,W,210819.000,A,A*4C
$GPGSA,A,3,26,07,16,09,30,27,23,,,,,,1.49,1.21,0.87*09
$GPGSV,3,1,11,09,65,258,20,27,51,100,30,23,50,180,26,07,49,299,35*78
$GPGSV,3,2,11,16,40,051,38,08,39,156,27,30,13,287,28,26,13,057,38*78
$GPGSV,3,3,11,05,05,330,15,21,03,044,16,50,,,*7F
$GPRMC,210819.000,A,4459.0225,N,09314.6361,W,0.56,353.24,110317,,,A*7E
$GPVTG,353.24,T,,M,0.56,N,1.04,K,A*38
$PGTOP,11,2*6E
$GPGGA,210820.000,4459.0226,N,09314.6362,W,1,07,1.36,282.2,M,-31.9,M,,*5C
$GPGLL,4459.0226,N,09314.6362,W,210820.000,A,A*46
$GPGSA,A,3,26,07,16,09,30,27,23,,,,,,2.26,1.36,1.81*02
$GPGSV,3,1,11,09,65,258,17,27,51,100,30,23,50,180,26,07,49,299,35*7C
$GPGSV,3,2,11,16,40,051,38,08,39,156,27,30,13,287,28,26,13,057,38*78
$GPGSV,3,3,11,05,05,330,15,21,03,044,16,50,,,*7F
$GPRMC,210820.000,A,4459.0226,N,09314.6362,W,0.49,350.15,110317,,,A*7B
$GPVTG,350.15,T,,M,0.49,N,0.91,K,A*3A
$PGTOP,11,2*6E
$GPGGA,210821.000,4459.0228,N,09314.6362,W,1,07,1.36,282.2,M,-31.9,M,,*53
$GPGLL,4459.0228,N,09314.6362,W,210821.000,A,A*49
$GPGSA,A,3,26,07,16,09,30,27,23,,,,,,2.26,1.36,1.81*02
$GPGSV,3,1,11,09,65,258,15,27,51,100,30,23,50,180,26,07,49,299,35*7E
$GPGSV,3,2,11,16,40,051,38,08,39,156,27,30,13,287,28,26,13,057,38*78
$GPGSV,3,3,11,05,05,330,15,21,03,044,16,50,,,*7F
$GPRMC,210821.000,A,4459.0228,N,09314.6362,W,0.47,353.29,110317,,,A*76
$GPVTG,353.29,T,,M,0.47,N,0.87,K,A*3F
$PGTOP,11,2*6E
$GPGGA,210822.000,4459.0229,N,09314.6363,W,1,07,1.36,282.2,M,-31.9,M,,*50
$GPGLL,4459.0229,N,09314.6363,W,210822.000,A,A*4A
$GPGSA,A,3,26,07,16,09,30,27,23,,,,,,2.26,1.36,1.81*02
$GPGSV,3,1,11,09,65,258,15,27,51,100,30,23,50,180,26,07,49,299,35*7E
$GPGSV,3,2,11,16,40,051,38,08,39,156,27,30,13,287,28,26,13,057,38*78
$GPGSV,3,3,11,05,05,330,15,21,03,044,16,50,,,*7F
$GPRMC,210822.000,A,4459.0229,N,09314.6363,W,0.24,338.25,110317,,,A*71
$GPVTG,338.25,T,,M,0.24,N,0.45,K,A*35
$PGTOP,11,2*6E
$GPGGA,210823.000,4459.0229,N,09314.6363,W,1,07,1.21,282.1,M,-31.9,M,,*54
$GPGLL,4459.0229,N,09314.6363,W,210823.000,A,A*4B
$GPGSA,A,3,26,07,16,09,30,27,23,,,,,,1.49,1.21,0.87*09
$GPGSV,3,1,11,09,65,258,14,27,51,100,30,23,50,180,27,07,49,299,35*7E
$GPGSV,3,2,11,16,40,051,38,08,40,155,27,30,13,287,28,26,13,057,38*75
$GPGSV,3,3,11,05,05,330,15,21,03,044,16,42,,,*7C
$GPRMC,210823.000,A,4459.0229,N,09314.6363,W,0.26,268.18,110317,,,A*78
$GPVTG,268.18,T,,M,0.26,N,0.48,K,A*30
$PGTOP,11,2*6E
$GPGGA,210824.000,4459.0229,N,09314.6364,W,1,07,1.21,282.1,M,-31.9,M,,*54
$GPGLL,4459.0229,N,09314.6364,W,210824.000,A,A*4B
$GPGSA,A,3,26,07,16,09,30,27,23,,,,,,1.49,1.21,0.87*09
$GPGSV,3,1,11,09,65,257,10,27,51,100,30,23,50,180,27,07,49,299,35*75
$GPGSV,3,2,11,16,40,051,38,08,40,155,27,30,13,287,28,26,13,057,38*75
$GPGSV,3,3,11,05,05,330,15,21,03,044,16,42,,,*7C
$GPRMC,210824.000,A,4459.0229,N,09314.6364,W,0.22,265.72,110317,,,A*7D
$GPVTG,265.72,T,,M,0.22,N,0.41,K,A*3C
$PGTOP,11,2*6E
$GPGGA,210825.000,4459.0229,N,09314.6365,W,1,07,1.21,282.1,M,-31.9,M,,*54
$GPGLL,4459.0229,N,09314.6365,W,210825.000,A,A*4B
$GPGSA,A,3,26,07,16,09,30,27,23,,,,,,1.49,1.21,0.87*09
$GPGSV,3,1,11,09,65,257,09,27,51,100,29,23,50,180,27,07,49,299,35*75
$GPGSV,3,2,11,16,40,051,38,08,40,155,27,30,13,287,28,26,13,057,38*75
$GPGSV,3,3,11,05,05,330,15,21,03,044,16,42,,,*7C
$GPRMC,210825.000,A,4459.0229,N,09314.6365,W,0.12,236.25,110317,,,A*7A
$GPVTG,236.25,T,,M,0.12,N,0.22,K,A*3E
$PGTOP,11,2*6E
$GPGGA,210826.000,4459.0229,N,09314.6365,W,1,07,1.21,282.1,M,-31.9,M,,*57
$GPGLL,4459.0229,N,09314.6365,W,210826.000,A,A*48
$GPGSA,A,3,26,07,16,09,30,27,23,,,,,,1.49,1.21,0.87*09
$GPGSV,3,1,11,09,65,257,14,27,51,100,29,23,50,180,27,07,49,299,35*79
$GPGSV,3,2,11,16,40,051,38,08,40,155,27,30,13,287,28,26,13,057,38*75
$GPGSV,3,3,11,05,05,330,15,21,03,044,16,42,,,*7C
$GPRMC,210826.000,A,4459.0229,N,09314.6365,W,0.19,220.89,110317,,,A*73
$GPVTG,220.89,T,,M,0.19,N,0.35,K,A*32
$PGTOP,11,2*6E
$GPGGA,210827.000,4459.0228,N,09314.6366,W,1,07,1.21,282.1,M,-31.9,M,,*54
$GPGLL,4459.0228,N,09314.6366,W,210827.000,A,A*4B
$GPGSA,A,3,26,07,16,09,30,27,23,,,,,,1.49,1.21,0.87*09
$GPGSV,3,1,11,09,65,257,14,27,51,100,29,23,50,180,28,07,49,299,35*76
$GPGSV,3,2,11,16,40,051,38,08,40,155,27,30,13,287,28,26,13,057,38*75
$GPGSV,3,3,11,05,05,330,16,21,03,044,16,42,,,*7F
$GPRMC,210827.000,A,4459.0228,N,09314.6366,W,0.20,196.33,110317,,,A*75
$GPVTG,196.33,T,,M,0.20,N,0.37,K,A*35
$PGTOP,11,2*6E
$GPGGA,210828.000,4459.0228,N,09314.6366,W,1,07,1.21,282.1,M,-31.9,M,,*5B
$GPGLL,4459.0228,N,09314.6366,W,210828.000,A,A*44
$GPGSA,A,3,26,07,16,09,30,27,23,,,,,,1.49,1.21,0.87*09
$GPGSV,3,1,11,09,65,257,14,27,51,100,29,23,50,180,28,07,49,299,35*76
$GPGSV,3,2,11,16,40,051,38,08,40,155,26,30,13,287,28,26,13,057,38*74
$GPGSV,3,3,11,05,05,330,17,21,03,044,16,42,,,*7E
$GPRMC,210828.000,A,4459.0228,N,09314.6366,W,0.26,152.17,110317,,,A*72
$GPVTG,152.17,T,,M,0.26,N,0.48,K,A*35
$PGTOP,11,2*6E
$GPGGA,210829.000,4459.0227,N,09314.6366,W,1,07,1.21,282.0,M,-31.9,M,,*54
$GPGLL,4459.0227,N,09314.6366,W,210829.000,A,A*4A
$GPGSA,A,3,26,07,16,09,30,27,23,,,,,,1.49,1.21,0.87*09
$GPGSV,3,1,11,09,65,257,12,27,51,100,29,23,50,180,28,07,49,299,35*70
$GPGSV,3,2,11,16,40,051,38,08,40,155,26,30,13,287,28,26,13,057,38*74
$GPGSV,3,3,11,05,05,330,17,21,03,044,15,40,,,*7F
$GPRMC,210829.000,A,4459.0227,N,09314.6366,W,0.22,143.96,110317,,,A*71
$GPVTG,143.96,T,,M,0.22,N,0.41,K,A*31
$PGTOP,11,2*6E
$GPGGA,210830.000,4459.0226,N,09314.6365,W,1,07,1.21,282.0,M,-31.9,M,,*5E
$GPGLL,4459.0226,N,09314.6365,W,210830.000,A,A*40
$GPGSA,A,3,26,07,16,09,30,27,23,,,,,,1.49,1.21,0.87*09
$GPGSV,3,1,11,09,65,257,14,27,51,100,29,23,50,180,28,07,49,299,35*76
$GPGSV,3,2,11,16,40,051,38,08,40,155,26,30,13,287,28,26,13,057,38*74
$GPGSV,3,3,11,05,05,330,17,21,03,044,15,40,,,*7F
$GPRMC,210830.000,A,4459.0226,N,09314.6365,W,0.25,157.49,110317,,,A*7B
$GPVTG,157.49,T,,M,0.25,N,0.46,K,A*36
$PGTOP,11,2*6E
$GPGGA,210831.000,4459.0226,N,09314.6365,W,1,07,1.21,282.0,M,-31.9,M,,*5F
$GPGLL,4459.0226,N,09314.6365,W,210831.000,A,A*41
$GPGSA,A,3,26,07,16,09,30,27,23,,,,,,1.49,1.21,0.87*09
$GPGSV,3,1,11,09,65,257,14,27,51,100,29,23,50,180,28,07,49,299,35*76
$GPGSV,3,2,11,16,40,052,38,08,40,155,26,30,13,287,29,26,13,057,38*76
$GPGSV,3,3,11,05,05,330,17,21,03,044,15,40,,,*7F
$GPRMC,210831.000,A,4459.0226,N,09314.6365,W,0.21,167.91,110317,,,A*78
$GPVTG,167.91,T,,M,0.21,N,0.39,K,A*3C
$PGTOP,11,2*6E
$GPGGA,210832.000,4459.0225,N,09314.6365,W,1,07,1.21,282.0,M,-31.9,M,,*5F
$GPGLL,4459.0225,N,09314.6365,W,210832.000,A,A*41
$GPGSA,A,3,26,07,16,09,30,27,23,,,,,,1.49,1.21,0.87*09
$GPGSV,3,1,11,09,65,257,17,27,51,100,29,23,50,180,28,07,49,299,35*75
$GPGSV,3,2,11,16,40,052,38,08,40,155,26,30,13,287,29,26,13,057,38*76
$GPGSV,3,3,11,05,05,330,17,21,03,044,15,40,,,*7F
$GPRMC,210832.000,A,4459.0225,N,09314.6365,W,0.20,166.71,110317,,,A*76
$GPVTG,166.71,T,,M,0.20,N,0.37,K,A*3C
$PGTOP,11,2*6E
$GPGGA,210833.000,4459.0224,N,09314.6365,W,1,07,1.21,281.9,M,-31.9,M,,*55
$GPGLL,4459.0224,N,09314.6365,W,210833.000,A,A*41
$GPGSA,A,3,26,07,16,09,30,27,23,,,,,,1.49,1.21,0.87*09
$GPGSV,3,1,11,09,65,257,17,27,51,100,29,23,50,180,28,07,49,299,35*75
$GPGSV,3,2,11,16,40,052,38,08,40,155,27,30,13,287,29,26,13,057,38*77
$GPGSV,3,3,11,05,05,330,17,21,03,044,14,40,,,*7E
$GPRMC,210833.000,A,4459.0224,N,09314.6365,W,0.20,181.77,110317,,,A*79
$GPVTG,181.77,T,,M,0.20,N,0.37,K,A*33
$PGTOP,11,2*6E
$GPGGA,210834.000,4459.0224,N,09314.6365,W,1,07,1.21,281.9,M,-31.9,M,,*52
$GPGLL,4459.0224,N,09314.6365,W,210834.000,A,A*46
$GPGSA,A,3,26,07,16,09,30,27,23,,,,,,1.49,1.21,0.87*09
$GPGSV,3,1,11,09,65,257,17,27,51,100,29,23,50,180,28,07,49,299,35*75
$GPGSV,3,2,11,16,40,052,38,08,40,155,27,30,13,287,29,26,13,057,38*77
$GPGSV,3,3,11,05,05,330,17,21,03,044,13,40,,,*79
$GPRMC,210834.000,A,4459.0224,N,09314.6365,W,0.22,178.64,110317,,,A*78
$GPVTG,178.64,T,,M,0.22,N,0.40,K,A*35
$PGTOP,11,2*6E
$GPGGA,210835.000,4459.0219,N,09314.6366,W,1,07,1.21,281.7,M,-31.9,M,,*50
$GPGLL,4459.0219,N,09314.6366,W,210835.000,A,A*4A
$GPGSA,A,3,26,07,16,09,30,27,23,,,,,,1.49,1.21,0.87*09
$GPGSV,3,1,11,09,65,257,19,27,51,100,29,23,50,180,28,07,49,299,35*7B
$GPGSV,3,2,11,16,40,052,38,08,40,155,28,30,13,287,29,26,13,057,38*78
$GPGSV,3,3,11,05,05,330,17,21,03,044,13,44,,,*7D
$GPRMC,210835.000,A,4459.0219,N,09314.6366,W,0.30,176.63,110317,,,A*7E
$GPVTG,176.63,T,,M,0.30,N,0.56,K,A*38
$PGTOP,11,2*6E
$GPGGA,210836.000,4459.0215,N,09314.6368,W,1,07,1.21,281.4,M,-31.9,M,,*52
$GPGLL,4459.0215,N,09314.6368,W,210836.000,A,A*4B
$GPGSA,A,3,26,07,16,09,30,27,23,,,,,,1.49,1.21,0.87*09
$GPGSV,3,1,11,09,65,257,20,27,51,100,28,23,50,180,28,07,49,299,35*70
$GPGSV,3,2,11,16,40,052,38,08,40,155,28,30,13,287,29,26,13,057,38*78
$GPGSV,3,3,11,05,05,330,17,21,03,043,14,44,,,*7D
$GPRMC,210836.000,A,4459.0215,N,09314.6368,W,0.32,172.62,110317,,,A*78
$GPVTG,172.62,T,,M,0.32,N,0.60,K,A*3A
$PGTOP,11,2*6E
$GPGGA,210837.000,4459.0213,N,09314.6369,W,1,07,1.21,281.2,M,-31.9,M,,*52
$GPGLL,4459.0213,N,09314.6369,W,210837.000,A,A*4D
$GPGSA,A,3,26,07,16,09,30,27,23,,,,,,1.49,1.21,0.87*09
$GPGSV,3,1,11,09,65,257,20,27,51,100,28,23,50,180,28,07,49,299,35*70
$GPGSV,3,2,11,16,40,052,38,08,40,155,29,30,13,287,29,26,13,057,38*79
$GPGSV,3,3,11,05,05,330,17,21,03,043,14,44,,,*7D
$GPRMC,210837.000,A,4459.0213,N,09314.6369,W,0.20,179.28,110317,,,A*78
$GPVTG,179.28,T,,M,0.20,N,0.37,K,A*3E
$PGTOP,11,2*6E
$GPGGA,210838.000,4459.0211,N,09314.6372,W,1,07,1.21,280.8,M,-31.9,M,,*5E
$GPGLL,4459.0211,N,09314.6372,W,210838.000,A,A*4A
$GPGSA,A,3,26,07,16,09,30,27,23,,,,,,1.49,1.21,0.87*09
$GPGSV,3,1,11,09,65,257,21,27,51,100,27,23,50,180,28,07,49,299,34*7F
$GPGSV,3,2,11,16,40,052,38,08,40,155,28,30,13,287,29,26,13,057,38*78
$GPGSV,3,3,11,05,05,330,17,21,03,043,14,44,,,*7D
$GPRMC,210838.000,A,4459.0211,N,09314.6372,W,0.24,153.28,110317,,,A*73
$GPVTG,153.28,T,,M,0.24,N,0.45,K,A*37
$PGTOP,11,2*6E
$GPGGA,210839.000,4459.0210,N,09314.6372,W,1,07,1.21,280.8,M,-31.9,M,,*5E
$GPGLL,4459.0210,N,09314.6372,W,210839.000,A,A*4A
$GPGSA,A,3,26,07,16,09,30,27,23,,,,,,1.49,1.21,0.87*09
$GPGSV,3,1,11,09,65,257,21,27,51,100,27,23,50,180,28,07,49,299,34*7F
$GPGSV,3,2,11,16,40,052,38,08,40,155,28,30,13,287,29,26,13,057,38*78
$GPGSV,3,3,11,05,05,330,17,21,03,043,15,44,,,30*7F
$GPRMC,210839.000,A,4459.0210,N,09314.6372,W,0.20,178.85,110317,,,A*79
$GPVTG,178.85,T,,M,0.20,N,0.38,K,A*37
$PGTOP,11,2*6E
$GPGGA,210840.000,4459.0209,N,09314.6372,W,1,07,1.21,280.7,M,-31.9,M,,*57
$GPGLL,4459.0209,N,09314.6372,W,210840.000,A,A*4C
$GPGSA,A,3,26,07,16,09,30,27,23,,,,,,1.49,1.21,0.87*09
$GPGSV,3,1,11,09,65,257,20,27,51,100,27,23,50,180,28,07,49,299,33*79
$GPGSV,3,2,11,16,40,052,38,08,40,155,28,30,13,287,29,26,13,057,38*78
$GPGSV,3,3,11,05,05,330,17,21,03,043,15,44,,,31*7E
$GPRMC,210840.000,A,4459.0209,N,09314.6372,W,0.23,193.47,110317,,,A*77
$GPVTG,193.47,T,,M,0.23,N,0.42,K,A*32
$PGTOP,11,2*6E
$GPGGA,210841.000,4459.0209,N,09314.6372,W,1,07,1.21,280.7,M,-31.9,M,,*56
$GPGLL,4459.0209,N,09314.6372,W,210841.000,A,A*4D
$GPGSA,A,3,26,07,16,09,30,27,23,,,,,,1.49,1.21,0.87*09
$GPGSV,3,1,11,09,65,257,20,27,51,100,26,23,50,180,28,07,49,299,33*78
$GPGSV,3,2,11,16,40,052,38,08,40,155,28,30,13,287,29,26,13,057,38*78
$GPGSV,3,3,11,05,05,330,17,21,03,043,15,44,,,30*7F
$GPRMC,210841.000,A,4459.0209,N,09314.6372,W,0.14,202.33,110317,,,A*7A
$GPVTG,202.33,T,,M,0.14,N,0.25,K,A*3F
$PGTOP,11,2*6E
$GPGGA,210842.000,4459.0208,N,09314.6372,W,1,07,1.21,280.7,M,-31.9,M,,*54
$GPGLL,4459.0208,N,09314.6372,W,210842.000,A,A*4F
$GPGSA,A,3,26,07,16,09,30,27,23,,,,,,1.49,1.21,0.87*09
$GPGSV,3,1,11,09,65,257,20,27,51,100,26,23,50,180,28,07,49,299,33*78
$GPGSV,3,2,11,16,40,052,38,08,40,155,28,30,13,287,29,26,13,057,38*78
$GPGSV,3,3,11,05,05,330,17,21,03,043,15,44,,,30*7F
$GPRMC,210842.000,A,4459.0208,N,09314.6372,W,0.13,199.55,110317,,,A*7E
$GPVTG,199.55,T,,M,0.13,N,0.24,K,A*38
$PGTOP,11,2*6E
$GPGGA,210843.000,4459.0208,N,09314.6372,W,1,07,1.21,280.7,M,-31.9,M,,*55
$GPGLL,4459.0208,N,09314.6372,W,210843.000,A,A*4E
$GPGSA,A,3,26,07,16,09,30,27,23,,,,,,1.49,1.21,0.87*09
$GPGSV,3,1,11,09,65,257,20,27,51,100,26,23,50,180,28,07,49,299,33*78
